,address,business_id,categories,city,hours,is_open,latitude,longitude,name,postal_code,review_count,stars,state
21,"1625 W Valencia Rd, Ste 101-103",wghnIlMb_i5U46HMBGx9ig,"Restaurants, Chinese",Tucson,"{'Monday': '11:0-21:0', 'Tuesday': '11:0-21:0', 'Wednesday': '11:0-21:0', 'Thursday': '11:0-21:0', 'Friday': '11:0-21:0', 'Saturday': '11:0-21:0', 'Sunday': '11:0-21:0'}",0,32.1323047,-110.9999851,China Dragon Restaurant,85746,23,3,AZ
52,1800 Spring Garden St,3BJxm-HnvzdwD1zjmSbmyQ,"Restaurants, Chinese",Philadelphia,"{'Monday': '0:0-0:0', 'Tuesday': '11:0-22:30', 'Wednesday': '11:0-22:30', 'Thursday': '11:0-22:30', 'Friday': '11:0-22:30', 'Saturday': '11:0-22:30', 'Sunday': '12:0-22:30'}",1,39.96307771,-75.16802745,Golden Chopstick Chinese Restaurant,19130,137,3,PA
95,10126 - 107 Avenue NW,jcL_qaGJiappzpnn-ifSoA,"Chinese, Restaurants, Filipino",Edmonton,,0,53.5515508,-113.4951554,Fat Jakks,T5H 0V6,8,4,AB
160,13399 Olive Blvd,NpglDX_FUp3ybEzbBp4qhw,"Restaurants, Chinese",Chesterfield,"{'Monday': '11:0-21:0', 'Tuesday': '11:0-21:0', 'Wednesday': '11:0-21:0', 'Thursday': '11:0-21:0', 'Friday': '11:0-21:30', 'Saturday': '12:0-21:30', 'Sunday': '16:30-21:0'}",0,38.6811546,-90.496384,Summer Palace Chinese Restaurant,63017,9,2.5,MO
163,5680 S 12th Ave,D7z_V6E8cxXghSRcHAmUPg,"Restaurants, Chinese",Tucson,"{'Tuesday': '11:0-19:30', 'Wednesday': '11:0-19:30', 'Thursday': '11:0-19:30', 'Friday': '11:0-19:30', 'Saturday': '11:0-19:30'}",1,32.149473,-110.9781864,La Bella China Restaurant,85706,92,4,AZ
187,334 W Bridge St,SoJwDKedR7SJh7-G69C38A,"Chinese, Restaurants",New Hope,"{'Monday': '11:0-22:0', 'Tuesday': '11:0-22:0', 'Wednesday': '11:0-22:0', 'Thursday': '11:0-22:0', 'Friday': '11:0-22:0', 'Saturday': '11:0-22:0', 'Sunday': '12:0-21:30'}",0,40.36390781,-74.96602191,Hong Kong Sunny,18938,18,3,PA
242,1221 4th St N,Yas-A9Jf07TJCIcgZny04w,"Restaurants, Chinese",Saint Petersburg,,0,27.7846206,-82.6383517,China City Restaurant,33701,14,2.5,FL
284,Church Rd & Hainespo,gyUBYwpUO_u0nqZdre4l1g,"Chinese, Restaurants",Marlton,"{'Monday': '11:0-21:30', 'Tuesday': '11:0-21:30', 'Wednesday': '11:0-21:30', 'Thursday': '11:0-21:30', 'Friday': '11:0-22:30', 'Saturday': '11:0-22:30', 'Sunday': '14:0-21:30'}",1,39.91611306,-74.92151896,Shanghai Express,8053,74,4,NJ
292,326 N Chester Pike,7Ct4QuWaY63DkAOXqEiVGA,"Chinese, Restaurants",Glenolden,,1,39.9033171,-75.2844083,Hong Kong Chinese Restaurant,19036,18,3,PA
297,12901 97 Street NW,qS4CaO_u_vMrTl31XJto1A,"Buffets, Restaurants, Chinese",Edmonton,"{'Monday': '11:0-22:0', 'Tuesday': '11:0-22:0', 'Wednesday': '11:0-22:0', 'Thursday': '11:0-22:0', 'Friday': '11:0-22:0', 'Saturday': '16:0-22:0', 'Sunday': '12:0-22:0'}",1,53.5878652,-113.4915257,Szechuan Paramount Restaurant,T5E 4C2,25,3,AB
298,545 Rockledge Ave,NVpbPRDvfwjb85CJwWE0nQ,"Chinese, Restaurants, Seafood, Noodles",Huntingdon Valley,"{'Tuesday': '11:0-21:0', 'Wednesday': '11:0-21:0', 'Thursday': '11:0-21:0', 'Friday': '11:0-22:0', 'Saturday': '11:0-22:0', 'Sunday': '12:0-21:0'}",1,40.09039773,-75.09267603,China Wok,19006,55,4,PA
322,"6878 E Sunrise Dr, Ste 120",fVPPZWf5QghlCLYRYec1rg,"Restaurants, Chinese",Tucson,,0,32.3088305,-110.8454971,China Sunrise Restaurant,85750,12,3.5,AZ
430,455 Opry Mills Dr,8SqvtaRu9likNDAfAU-HBQ,"Fast Food, Restaurants, Chinese",Nashville,"{'Monday': '11:0-19:0', 'Tuesday': '11:0-19:0', 'Wednesday': '11:0-19:0', 'Thursday': '11:0-19:0', 'Friday': '11:0-19:0', 'Saturday': '11:0-19:0', 'Sunday': '12:0-18:0'}",1,36.20272849,-86.69448853,Panda Express,37214,15,3,TN
437,7018 E Golf Links Rd,Vf1je11xO_8RtFeBUiV2tg,"Restaurants, Chinese",Tucson,"{'Monday': '11:0-21:30', 'Tuesday': '11:0-21:30', 'Wednesday': '11:0-21:30', 'Thursday': '11:0-21:30', 'Friday': '11:0-22:0', 'Saturday': '11:0-22:0', 'Sunday': '12:0-21:30'}",0,32.1907202,-110.8436457,Golden China Restaurant,85730,13,3.5,AZ
483,3379 Kentucky Ave,YUlWhx8rq_Pc5yVKrp2awQ,"Chinese, Restaurants",Indianapolis,,1,39.71394111,-86.23480126,China One,46221,23,4,IN
492,735 W Lancaster Ave,Z5LGSHEYjCUtKwjKotCNqA,"Chinese, Restaurants",Wayne,,1,40.0477909,-75.409318,Chinese Delight,19087,52,3,PA
495,"700 Nutt Rd, Ste 701",btycQr2eJqbNbArJdUxMmQ,"Restaurants, Chinese",Phoenixville,"{'Monday': '16:0-21:30', 'Tuesday': '16:0-21:30', 'Wednesday': '16:0-21:30', 'Thursday': '16:0-21:30', 'Friday': '16:0-21:30', 'Saturday': '16:0-21:30', 'Sunday': '12:0-21:0'}",0,40.133113,-75.5342207,New Golden Buffet,19460,30,2.5,PA
509,"10025 102A Avenue NW, 3rd Floor",kB_937pEPUD5iwVY12SCbg,"Fast Food, Chinese, Restaurants",Edmonton,"{'Monday': '10:0-18:0', 'Tuesday': '10:0-18:0', 'Wednesday': '10:0-18:0', 'Thursday': '10:0-20:0', 'Friday': '10:0-20:0', 'Saturday': '10:0-18:0', 'Sunday': '12:0-17:0'}",0,53.54387379,-113.4928506,Shanghai 360,T5J,6,2.5,AB
513,"10801 Starkey Rd, Ste 5",idRTl_xdqB12GWXIsisW-g,"Restaurants, Chinese",Seminole,"{'Tuesday': '11:0-21:30', 'Wednesday': '11:0-21:30', 'Thursday': '11:0-21:30', 'Friday': '11:0-22:0', 'Saturday': '11:0-22:0', 'Sunday': '12:0-21:30'}",1,27.87184,-82.760131,New Hong Kong Chinese Restaurant,33777,18,2.5,FL
518,718 S Florissant Rd,QEF6usO04AtvrazPhLX_sw,"Chinese, Restaurants",Ferguson,,1,38.7353075,-90.301102,Chinese Express,63135,15,4,MO
533,10714 Countryway Blvd,a8eIw8vCk-kIe__G6NUfaA,"Chinese, Restaurants",Tampa,"{'Monday': '11:0-22:0', 'Tuesday': '11:0-22:0', 'Wednesday': '11:0-22:0', 'Thursday': '11:0-22:0', 'Friday': '11:0-23:0', 'Saturday': '11:0-23:0', 'Sunday': '12:0-22:0'}",0,28.0571712,-82.6237785,China Wok,33626,17,3.5,FL
548,8165 Hwy 100,zxpJ4Frr8Zoru-YaNzOxzw,"Chinese, Restaurants",Nashville,"{'Tuesday': '10:45-21:30', 'Wednesday': '10:45-21:30', 'Thursday': '10:45-21:30', 'Friday': '10:45-22:0', 'Saturday': '10:45-22:0', 'Sunday': '10:45-21:30'}",1,36.0441354,-86.9579331,China Spring,37221,33,3.5,TN
560,"18101 Highwoods Preserve Pkwy, Ste 100",_uQEKHH0R5fxrYkLrUI9pQ,"Szechuan, Noodles, Restaurants, Chinese",Tampa,"{'Monday': '0:0-0:0', 'Wednesday': '17:0-21:0', 'Thursday': '17:0-21:0', 'Friday': '17:0-21:0', 'Saturday': '17:0-21:0', 'Sunday': '17:0-21:0'}",1,28.1316091,-82.3691327,Gu Wei Noodles & Grill,33647,40,4.5,FL
580,"120 Street, Suite 12704",PJeoajci4MBVuyAOQet57g,"Chinese, Restaurants",Edmonton,"{'Monday': '10:0-21:0', 'Tuesday': '10:0-21:0', 'Wednesday': '10:0-21:0', 'Thursday': '10:0-21:0', 'Friday': '10:0-21:0', 'Saturday': '10:0-21:0', 'Sunday': '10:0-21:0'}",1,53.5850722,-113.5290706,Dover Kam Kitchen,T5E,9,3,AB
590,170 W County Ctr,Q21nd52A3wOMlu7b28ZISQ,"Chinese, Restaurants",Saint Louis,,1,38.60000161,-90.44686701,Mandalay Asian Cuisine,63131,16,3,MO
594,8600 Delmar Blvd,y5o2VSvj42KrXrotY3GTgA,"Restaurants, Chinese",Saint Louis,"{'Monday': '17:0-21:30', 'Tuesday': '17:0-21:30', 'Wednesday': '17:0-21:30', 'Thursday': '17:0-21:30', 'Friday': '17:0-22:30', 'Saturday': '17:0-22:30', 'Sunday': '16:0-21:0'}",0,38.66029492,-90.35851479,Guo Bin Chinese Restaurant,63124,51,3.5,MO
595,439 Cool Springs Blvd,vG9aD-fvsIimgo-l7u8-AA,"Restaurants, Chinese, Asian Fusion, Gluten-Free",Franklin,"{'Monday': '0:0-0:0', 'Tuesday': '11:0-21:0', 'Wednesday': '11:0-21:0', 'Thursday': '11:0-21:0', 'Friday': '11:0-22:0', 'Saturday': '11:0-22:0', 'Sunday': '11:0-21:0'}",1,35.94672225,-86.82576656,P.F. Chang's,37067,181,2.5,TN
609,2809 Ridge Pike,PMpcbvBon1rfGE7pWKv8aQ,"Restaurants, Chinese",Trooper,"{'Monday': '11:0-22:0', 'Tuesday': '11:0-22:0', 'Wednesday': '11:0-22:0', 'Thursday': '11:0-22:0', 'Friday': '11:0-22:30', 'Saturday': '11:0-22:30', 'Sunday': '12:0-21:30'}",1,40.1473976,-75.3956755,King House Chinese Restaurant,19403,15,3.5,PA
620,8663 Little Rd,nteD5A6CKXZPqbR9EltQng,"Restaurants, Chinese",Port Richey,"{'Monday': '11:0-22:0', 'Wednesday': '11:0-22:0', 'Thursday': '11:0-22:0', 'Friday': '11:0-22:30', 'Saturday': '11:0-22:30', 'Sunday': '12:0-22:0'}",1,28.283355,-82.677826,Super China Chinese Restaurant,34654,54,4,FL
649,"625 E Wetmore Rd, Ste 109",-3-6BB10tIWNKGEF0Es2BA,"Coffee & Tea, Asian Fusion, Food, Bubble Tea, Hong Kong Style Cafe, Taiwanese, Restaurants, Chinese",Tucson,"{'Monday': '0:0-0:0', 'Wednesday': '10:0-21:0', 'Thursday': '10:0-21:0', 'Friday': '10:0-21:0', 'Saturday': '10:0-21:0', 'Sunday': '10:0-21:0'}",1,32.2885403,-110.9631443,The 81 Hong Kong Cafe,85705,133,4,AZ
665,3447-61 Richmond St,V5KiEoH4E86GA2S3RQkf1g,"Restaurants, Chinese, Asian Fusion",Philadelphia,"{'Monday': '11:0-22:0', 'Tuesday': '11:0-22:0', 'Wednesday': '11:0-22:0', 'Thursday': '11:0-22:0', 'Friday': '11:0-22:0', 'Saturday': '11:0-22:0', 'Sunday': '11:0-22:0'}",1,39.9862724,-75.094699,Spice Grill,19134,12,3.5,PA
666,3711 Market St,MMRRS6YhVRx_iN5-JhMRYg,"Restaurants, Chinese, Szechuan",Philadelphia,"{'Monday': '11:30-21:0', 'Tuesday': '11:30-21:0', 'Wednesday': '11:30-21:0', 'Thursday': '11:30-21:0', 'Friday': '11:30-21:30', 'Saturday': '11:30-21:30', 'Sunday': '11:30-21:0'}",1,39.95671052,-75.19710278,Han Dynasty,19104,783,4,PA
671,927 Race St,icp_IKE9zIkAqAucyS1vTA,"Restaurants, Chinese",Philadelphia,"{'Monday': '11:0-22:30', 'Tuesday': '11:0-22:30', 'Wednesday': '11:0-22:30', 'Thursday': '11:0-22:30', 'Friday': '11:0-23:0', 'Saturday': '11:0-23:0', 'Sunday': '11:0-22:30'}",0,39.9554945,-75.1552563,Hakka Beef House,19107,33,4.5,PA
692,3175 S Grand Blvd,Llu8_Lx2DFthmr99_eiOLA,"Bakeries, Chinese, Restaurants, Food",Saint Louis,"{'Monday': '11:0-21:0', 'Wednesday': '11:0-21:0', 'Thursday': '11:0-21:0', 'Friday': '11:0-21:0', 'Saturday': '11:0-21:0', 'Sunday': '11:0-21:0'}",1,38.6002991,-90.2429828,Wei Hong Bakery & Restaurant,63118,135,4,MO
693,2716 E Fowler Ave,3n_G-_DwOJ2VS4uGxBN6sg,"Chinese, Noodles, Seafood, Chicken Wings, Restaurants",Tampa,"{'Monday': '11:0-21:0', 'Tuesday': '11:0-21:0', 'Wednesday': '11:0-21:0', 'Thursday': '11:0-21:0', 'Friday': '11:0-21:0', 'Saturday': '11:0-21:0', 'Sunday': '12:0-21:0'}",1,28.0554349,-82.4292524,Lan Zhou Lamen,33612,78,4,FL
759,5140 Kietzke Lane Suite E,UKA2eeAZmO4ACB2J0kFISw,"Fast Food, Chinese, Restaurants",Reno,"{'Monday': '10:30-21:30', 'Tuesday': '10:30-21:30', 'Wednesday': '10:30-21:30', 'Thursday': '10:30-21:30', 'Friday': '10:30-21:30', 'Saturday': '10:30-21:30', 'Sunday': '10:30-21:30'}",1,39.47496469,-119.7922227,Panda Express,89509,86,2.5,NV
765,989 N US 31,Z5C4q4mouUojigDmCRuG8w,"Chinese, Restaurants",Whiteland,"{'Tuesday': '11:0-22:0', 'Wednesday': '11:0-22:0', 'Thursday': '11:0-22:0', 'Friday': '11:0-22:0', 'Saturday': '11:0-22:0', 'Sunday': '12:0-21:30'}",1,39.56383987,-86.09175382,Taste of China,46184,21,4,IN
766,421 Hurffville-Crosskeys Rd,kgywEv9dQHcvEAu741y3RQ,"Seafood, Restaurants, Chinese",Sewell,"{'Monday': '11:0-22:0', 'Tuesday': '11:0-22:0', 'Wednesday': '11:0-22:0', 'Thursday': '11:0-22:0', 'Friday': '11:0-23:0', 'Saturday': '11:0-23:0', 'Sunday': '12:0-22:0'}",1,39.7338119,-75.0638068,New Bamboo Garden,8080,34,4,NJ
778,1228 Chestnut St,n6dw_zxL_4cVO6EP_m0joQ,"Restaurants, Chinese",Philadelphia,,1,39.9503586,-75.1615836,Dragon House,19107,5,4,PA
793,17743 98A Avenue NW,ypp08ewHqQ-zmdTnG8qOAw,"Restaurants, Chinese, Seafood",Edmonton,,1,53.533629,-113.627752,New Dragon Express,T5T 5W8,14,2.5,AB
843,906 Conestoga Rd,84gj5tMd_gxn9_rZBLmEIw,"Restaurants, Chinese",Bryn Mawr,,0,40.0253454,-75.3373564,China Garden Restaurant,19010,12,3,PA
852,281 N Keswick Ave,bRhnVTfuxDchyFguyDzuDQ,"Restaurants, Sushi Bars, Food, Chinese",Glenside,"{'Monday': '11:0-22:0', 'Tuesday': '11:0-22:0', 'Wednesday': '11:0-22:0', 'Thursday': '11:0-22:0', 'Friday': '11:0-23:0', 'Saturday': '11:0-23:0', 'Sunday': '12:0-22:0'}",1,40.10614254,-75.14692804,Queen Sushi,19038,76,3.5,PA
866,1606 W Valencia Rd,Y70T1eClNnw_PlBkr1IHqg,"Chinese, Fast Food, Restaurants",Tucson,"{'Monday': '9:30-22:0', 'Tuesday': '9:30-22:0', 'Wednesday': '9:30-22:0', 'Thursday': '9:30-22:0', 'Friday': '9:30-22:30', 'Saturday': '10:0-22:30', 'Sunday': '10:0-22:0'}",1,32.1342676,-110.9998502,Panda Express,85746,44,1.5,AZ
872,5431 N 5th St,sfbg2kxnvKpmlIuCUas5TA,"Restaurants, Chinese",Philadelphia,,1,40.0342865,-75.1307075,Lucky Wok Restaurant,19120,6,2.5,PA
926,"901 Embarcadero Del Mar, Unit 100",MiMRlsXOpHJMSTDAuw8s1w,"Chinese, Restaurants, Asian Fusion, Szechuan",Isla Vista,"{'Monday': '0:0-0:0', 'Tuesday': '17:0-21:0', 'Wednesday': '17:0-21:0', 'Thursday': '17:0-21:0', 'Friday': '17:0-21:0', 'Saturday': '17:0-21:0'}",1,34.4129239,-119.8573375,Su?Ä?s Bowl,93117,18,3.5,CA
964,440 E Ortega St,lTVHJAvtFQbQb6cPstEXyA,"American (New), American (Traditional), Chinese, Restaurants",Santa Barbara,"{'Monday': '11:30-22:0', 'Tuesday': '11:30-22:0', 'Wednesday': '11:30-22:0', 'Thursday': '11:30-22:0', 'Friday': '11:30-22:0', 'Saturday': '11:30-22:0', 'Sunday': '11:30-22:0'}",0,34.4235663,-119.6925452,China Bowl & State Street Cafe,93101,61,2,CA
977,615 E Prater Way,NAbdYpm3Hn_XnhSQftsJNA,"Dim Sum, Chinese, Restaurants",Sparks,,1,39.54159008,-119.7357798,Wow Bao,89431,13,2,NV
979,1762 22nd St S,ewhGlOAo3GYriPFnLV004g,"Chinese, Restaurants",Saint Petersburg,,1,27.7524013,-82.6614647,China Star,33712,6,3,FL
986,2659 N Illinois St,1CRaUspmxoegNBUnLkBAyA,"Chinese, Restaurants",Swansea,"{'Monday': '10:30-22:0', 'Wednesday': '10:30-22:0', 'Thursday': '10:30-22:0', 'Friday': '10:30-22:30', 'Saturday': '10:30-22:30', 'Sunday': '11:30-22:0'}",1,38.54432735,-89.98412936,Li Chinese Reaturant,62226,27,3,IL
1049,1512 Walnut St,aZNiVR6oAMQX5__yGPvYsg,"Chinese, Restaurants",Philadelphia,,0,39.9493255,-75.1667043,Susanna Foo Chinese Cuisine,19102,26,3.5,PA
1083,"6970 W State St, Ste 18",7JB8oxtB1Wa0JIWHxs-DhQ,"Chinese, Restaurants",Boise,,0,43.667181,-116.27553,Jades Chopstick,83714,7,2.5,ID
1084,"901 Embarcadero Del Mar, Ste 100",cbkrO0zra1OiNGvtjw2igQ,"Restaurants, Chinese",Goleta,"{'Monday': '17:0-22:0', 'Tuesday': '17:0-22:0', 'Wednesday': '17:0-22:0', 'Thursday': '17:0-22:0', 'Friday': '17:0-22:0', 'Saturday': '17:0-22:0', 'Sunday': '17:0-22:0'}",0,34.41310531,-119.8574306,Wok On the Wild Side,93117,95,2,CA
1103,2821 116 Street NW,a24bmNPatJARqO1H4QnWgQ,"Restaurants, Chinese",Edmonton,"{'Monday': '15:30-23:0', 'Tuesday': '15:30-23:0', 'Wednesday': '15:30-23:0', 'Thursday': '15:30-23:0', 'Friday': '15:30-0:0', 'Saturday': '15:30-0:0', 'Sunday': '15:30-23:0'}",1,53.4604772,-113.5313926,Blue Quill Chinese Food,T6J 4R6,26,3,AB
1105,"1155 St. Louis Galleria, FC-5",la1k3Qq-cUBZrTXyElb8QA,"Chinese, Fast Food, Restaurants",Saint Louis,"{'Monday': '11:0-19:0', 'Tuesday': '11:0-17:0', 'Wednesday': '11:0-19:0', 'Thursday': '11:0-19:0', 'Friday': '11:0-19:0', 'Saturday': '11:0-19:0', 'Sunday': '11:0-19:0'}",1,38.636278,-90.348028,Panda Express,63117,7,3.5,MO
1110,17 Flower Valley Shopping Ctr,9jSYRT9jmXlVp0owgqKa5A,"Chinese, Restaurants",Florissant,"{'Monday': '11:0-22:0', 'Tuesday': '11:0-22:0', 'Wednesday': '11:0-22:0', 'Thursday': '11:0-22:0', 'Friday': '11:0-22:0', 'Saturday': '11:0-22:0'}",1,38.811718,-90.298623,Old St Louis Chop Suey,63033,12,4,MO
1170,"2613 Franklin Pike, Ste 103",tW-hptQp2G8ShB_In68InQ,"Chinese, Restaurants",Nashville,"{'Monday': '11:0-22:0', 'Tuesday': '11:0-22:0', 'Wednesday': '11:0-22:0', 'Thursday': '11:0-22:0', 'Friday': '11:0-22:0', 'Saturday': '11:0-22:0', 'Sunday': '15:0-22:0'}",1,36.12045132,-86.77742195,China Spring,37204,28,3,TN
1172,450 Pennbrook Pkwy,2va-BK-z06mmPkSjNAJX0w,"Chinese, Restaurants",Lansdale,"{'Monday': '10:30-21:15', 'Tuesday': '10:30-21:15', 'Wednesday': '10:30-21:15', 'Thursday': '10:30-21:15', 'Friday': '10:30-22:15', 'Saturday': '10:30-22:15', 'Sunday': '11:30-21:15'}",1,40.2284736,-75.2820167,China King,19446,42,3.5,PA
1181,108 N 10th St,mCo2uVTTGYrEhRrkQW-CMw,"Taiwanese, Chinese, Noodles, Restaurants",Philadelphia,"{'Monday': '11:0-21:45', 'Tuesday': '11:0-21:45', 'Wednesday': '11:0-21:45', 'Thursday': '11:0-21:45', 'Friday': '11:0-22:30', 'Saturday': '11:0-22:30', 'Sunday': '11:0-21:45'}",0,39.9539403,-75.1563093,Empress Garden,19107,263,4,PA
1189,104 N 10th St,ydIiHK4TE_wd7gAyifNUAQ,"Restaurants, Chinese",Philadelphia,"{'Monday': '9:0-19:0', 'Tuesday': '9:0-19:0', 'Wednesday': '9:0-19:0', 'Thursday': '9:0-19:0', 'Friday': '9:0-19:0'}",0,39.9538392,-75.1563293,Chinese Restaurant,19107,27,4.5,PA
1243,21627 Villages Lakes Shopping Dr,VOGWnQHijIpURf4eNSvIaw,"Buffets, Asian Fusion, Sushi Bars, Restaurants, Chinese",Land o lakes,"{'Monday': '11:0-21:30', 'Tuesday': '11:0-21:30', 'Wednesday': '11:0-21:30', 'Thursday': '11:0-21:30', 'Friday': '11:0-22:30', 'Saturday': '11:0-22:30', 'Sunday': '11:0-21:30'}",0,28.190878,-82.458285,Imperial Asian Buffet,34639,56,3,FL
1245,3203 Calgary Trail,0IG9w6YCkh-z5pnfSip6Nw,"Chinese, Restaurants, Dim Sum",Edmonton,"{'Monday': '10:30-22:0', 'Tuesday': '10:30-22:0', 'Wednesday': '10:30-22:0', 'Thursday': '10:30-22:0', 'Friday': '10:0-22:30', 'Saturday': '10:0-22:30', 'Sunday': '9:0-22:0'}",1,53.4642729,-113.4947455,Tasty Noodle,T6J 5X8,64,3.5,AB
1251,7541 N Lindbergh Blvd,PwPlORKIYRQlm_vpQ72WUA,"Restaurants, Chinese",Hazelwood,,0,38.785992,-90.352844,Village China Wok Buffet,63042,5,2,MO
1252,2852 Street Rd,Cpl1-0iX6N7yauiJKhpXfA,"Chinese, Cantonese, Noodles, Restaurants",Bensalem,"{'Monday': '11:0-22:0', 'Tuesday': '11:0-22:0', 'Wednesday': '11:0-22:0', 'Thursday': '11:0-22:0', 'Friday': '11:0-23:59', 'Saturday': '11:0-23:59', 'Sunday': '12:0-22:0'}",1,40.111675,-74.955319,Hong Kong Star Noodle House,19020,50,3.5,PA
1255,"966 Embarcadero Del Mar, Apt C",SOl2m-ZsAmnCuQGdMZeANQ,"Restaurants, Fast Food, Chinese",Isla Vista,"{'Monday': '11:0-21:0', 'Tuesday': '11:0-21:0', 'Wednesday': '11:0-21:0', 'Thursday': '11:0-21:0', 'Friday': '11:0-21:0', 'Saturday': '11:0-21:0', 'Sunday': '11:0-21:0'}",1,34.411727,-119.8567951,Red Pepper Chinese Food Express,93117,5,3.5,CA
1269,"3122 N Campbell Ave, Ste 100",AEOd0wRdjeLIXb1usSp9hg,"Restaurants, Dim Sum, Chinese, Cantonese, Noodles, Taiwanese, Szechuan",Tucson,"{'Monday': '11:0-21:0', 'Tuesday': '11:0-21:0', 'Wednesday': '11:0-21:0', 'Thursday': '11:0-21:0', 'Friday': '11:0-21:30', 'Saturday': '12:0-21:30', 'Sunday': '12:0-21:0'}",1,32.2636803,-110.9431659,Kung Fu Noodle,85719,217,4,AZ
1270,801 E Bloomingdale Ave,UU48d45ZXJV1Sb8_Pmpvjg,"Restaurants, Chinese",Brandon,"{'Monday': '11:0-22:0', 'Tuesday': '11:0-22:0', 'Wednesday': '11:0-22:0', 'Thursday': '11:0-22:0', 'Friday': '11:0-22:30', 'Saturday': '11:0-22:30', 'Sunday': '12:0-22:0'}",0,27.8931397,-82.273059,Dragon City,33511,25,2.5,FL
1281,9431 Jasper Ave NW,UBJ99FRrRQSEypU5CtjGBw,"Dim Sum, Restaurants, Chinese",Edmonton,,0,53.545739,-113.4782234,Mirama Dining & Lounge,T5H 3T8,9,3,AB
1288,6310 Delmar Blvd,NvMYRJ_wPJmt4FFsEF7O0A,"Restaurants, Szechuan, Chinese",University City,"{'Monday': '11:0-20:30', 'Wednesday': '11:0-20:45', 'Thursday': '11:0-20:45', 'Friday': '11:0-21:30', 'Saturday': '11:0-21:30', 'Sunday': '11:0-21:30'}",1,38.65562127,-90.30247748,Perfect Taste,63130,65,4,MO
1312,7035 E 96th St,0SZy4uieBzBzg54vRdAfgw,"Restaurants, Chinese",Indianapolis,,0,39.92633,-86.0448719,Panda Express,46250,6,2,IN
1326,1801 Zumbehl Rd,fdqBP3kBrZHRHzQkoiNJ3g,"Chinese, Restaurants",Saint Charles,,1,38.77677,-90.529285,Ho-Ho Chinese Restaurant,63303,34,3,MO
1376,456 E Carmel Dr,4fQPIhCh2bUJBZcxQlLGFQ,"Buffets, Restaurants, Chinese",Carmel,"{'Monday': '11:0-21:0', 'Tuesday': '11:0-21:0', 'Wednesday': '11:0-21:0', 'Thursday': '11:0-21:0', 'Friday': '11:0-22:0', 'Saturday': '11:0-22:0', 'Sunday': '11:0-21:0'}",1,39.96276707,-86.11771781,Number One China Buffet,46032,54,3,IN
1391,209 S State Rd 135,yPzni14snM06Kk5xLy6e6w,"Fast Food, Food, Restaurants, Imported Food, Chinese, Ethnic Food, Specialty Food",Greenwood,"{'Monday': '16:0-21:30', 'Tuesday': '11:0-21:30', 'Wednesday': '11:0-21:30', 'Thursday': '11:0-21:30', 'Friday': '11:0-22:30', 'Saturday': '11:0-22:30', 'Sunday': '11:0-21:30'}",1,39.6126787,-86.1575896,Wang Cai,46142,31,3.5,IN
1446,8310 Pendleton Pike,6VOoXgAP2QCXHHFioUGeOQ,"Chinese, Restaurants",Indianapolis,"{'Monday': '11:0-21:30', 'Tuesday': '11:0-21:30', 'Wednesday': '11:0-21:30', 'Thursday': '11:0-21:30', 'Friday': '11:0-22:0', 'Saturday': '11:0-22:0', 'Sunday': '15:0-21:0'}",1,39.8396515,-86.0208823,Rice King,46226,24,3.5,IN
1463,3700 Mallory Ln,X-Xx23pb9nqppl2KNpOMJw,"Chinese, Restaurants",Franklin,,1,35.9385971,-86.8197926,Famous Wok,37067,6,3,TN
1507,47 S York Rd,rDuopLmZ2X0uvwZpkqHGcw,"Soup, Seafood, Restaurants, Chinese",Hatboro,"{'Monday': '11:0-21:45', 'Tuesday': '11:0-21:45', 'Wednesday': '11:0-21:45', 'Thursday': '11:0-21:45', 'Friday': '11:0-22:45', 'Saturday': '11:0-22:45', 'Sunday': '12:0-21:45'}",1,40.176079,-75.106012,Asian Cafe,19040,14,3,PA
1557,2374 W 86th St,NnHfPMXbY7IQI24lcYXKiQ,"Restaurants, Breakfast & Brunch, Asian Fusion, Chinese, Noodles",Indianapolis,,1,39.9123675,-86.2025668,Wow Bao,46260,33,2.5,IN
1589,1441 E Fletcher Ave,zPmSsAdvoBbo94msaYCLYg,"Restaurants, Chinese, Seafood",Tampa,"{'Monday': '11:0-21:0', 'Tuesday': '11:0-21:0', 'Thursday': '11:0-21:0', 'Friday': '11:0-21:0', 'Saturday': '11:0-21:0', 'Sunday': '11:0-21:0'}",0,28.0688469,-82.4437504,Chopstix,33612,32,3,FL
1604,2373 Murfreesboro Pike,ctu_fZxCRoQKRj4kUtOitg,"Restaurants, Chinese",Nashville,"{'Tuesday': '11:0-22:30', 'Wednesday': '11:0-22:30', 'Thursday': '11:0-22:30', 'Friday': '11:0-23:0', 'Saturday': '11:0-23:0', 'Sunday': '12:0-22:30'}",1,36.0843377,-86.647476,China Moon,37217,19,3,TN
1620,113 E Judge Perez,GUjW2bS0MVP4qZ7_o1m-Uw,"Seafood, Chinese, Restaurants",Chalmette,"{'Monday': '10:0-20:0', 'Wednesday': '10:0-20:0', 'Thursday': '10:0-20:0', 'Friday': '10:0-20:0', 'Saturday': '10:0-20:0', 'Sunday': '11:0-19:0'}",0,29.9425702,-89.9624911,Son Seafood,70043,9,4.5,LA
1626,5332 Little Rd,l4N93cZPMrtCSIBYT5Vk5A,"Restaurants, Chinese",New Port Richey,,1,28.237338,-82.6686826,China King,34655,20,3,FL
1645,398 S Indiana St,IBl6b1zPNo36aqV4h7vQ_w,"Chinese, Restaurants, Buffets",Mooresville,,1,39.606606,-86.376912,Dong's China Buffet,46158,59,3.5,IN
1684,27 E Hinckley Ave,do1iQw_yAYGcaNn2RMBnSQ,"Restaurants, Chinese",Ridley Park,"{'Monday': '10:30-22:30', 'Tuesday': '10:30-22:30', 'Wednesday': '10:30-22:30', 'Thursday': '10:30-22:30', 'Friday': '10:30-23:0', 'Saturday': '10:30-23:0', 'Sunday': '12:0-22:0'}",1,39.8796236,-75.3227468,China Wok,19078,19,3.5,PA
1694,"799 State St, Ste 16",pONoQvxG76bUJbMtCjiZJg,"Restaurants, Chinese",Pottstown,"{'Monday': '11:0-22:0', 'Tuesday': '11:0-22:0', 'Wednesday': '11:0-22:0', 'Thursday': '11:0-22:0', 'Friday': '11:0-23:0', 'Saturday': '11:0-23:0', 'Sunday': '12:0-22:0'}",1,40.26132602,-75.65103117,Peking Gourmet,19464,18,3.5,PA
1701,10019 106 Avenue NW,b-4xNydyGmdv2bGFOHTgdw,"Bakeries, Breakfast & Brunch, Chinese, Restaurants, Coffee & Tea, Food",Edmonton,"{'Monday': '9:0-2:0', 'Tuesday': '9:0-2:0', 'Wednesday': '9:0-2:0', 'Thursday': '9:0-2:0', 'Friday': '9:0-4:0', 'Saturday': '9:0-4:0', 'Sunday': '9:0-1:0'}",0,53.5496061,-113.4928653,Garden Bakery,T5H 0N8,45,3.5,AB
1707,2247 S Grand Blvd,qGtEgy3ws-Arxr5_91YmSA,"Chinese, Restaurants",Saint Louis,"{'Monday': '11:0-22:0', 'Tuesday': '11:0-22:0', 'Wednesday': '11:0-22:0', 'Thursday': '11:0-22:0', 'Friday': '11:0-22:0', 'Saturday': '11:0-22:0'}",1,38.6100927,-90.2411453,Hong Kong Express,63104,23,3,MO
1726,"1086 S Virginia St, Ste A",MU8ekK-1u9IGVGAbHRdoMg,"Chinese, Noodles, Restaurants, Seafood",Reno,"{'Monday': '11:0-21:0', 'Tuesday': '11:0-21:0', 'Wednesday': '11:0-21:0', 'Thursday': '11:0-21:0', 'Friday': '11:0-21:0', 'Saturday': '11:0-21:0', 'Sunday': '11:0-21:0'}",1,39.513276,-119.8066165,WANG'S TABLE,89502,15,4.5,NV
1728,425 West Girard Ave,1pkuCWlH3iEuUAQVHpIuHQ,"Cantonese, Restaurants, Chinese, Szechuan",Philadelphia,,0,39.97024837,-75.14422344,China Star,19123,10,3,PA
1750,7260 Fishers Crossing Dr,fSx8zLSP_LBtIm_mfQRbTQ,"Asian Fusion, Restaurants, Chinese, Food Delivery Services, Food",Fishers,"{'Monday': '11:0-21:30', 'Tuesday': '11:0-21:30', 'Wednesday': '11:0-21:30', 'Thursday': '11:0-21:30', 'Friday': '11:0-22:0', 'Saturday': '12:0-22:0', 'Sunday': '12:0-21:0'}",1,39.958505,-86.0424579,Dragon House Chinese Eatery,46038,117,3,IN
1767,3250 E Speedway Blvd,vzvm7_QXEDaMTxMOKLBNyQ,"Vegetarian, Chinese, Restaurants",Tucson,"{'Monday': '11:0-21:0', 'Tuesday': '11:0-21:0', 'Wednesday': '11:0-21:0', 'Thursday': '11:0-21:0', 'Friday': '11:0-22:0', 'Saturday': '11:30-21:30', 'Sunday': '11:30-21:0'}",0,32.2358788,-110.9234611,Guilin Chinese,85716,116,3.5,AZ
1778,10606 - 97 Street,YSmh3UwoCPzoLytbYKYBLw,"Food, Specialty Food, Meat Shops, Chinese, Barbeque, Restaurants",Edmonton,"{'Monday': '11:0-19:0', 'Tuesday': '11:0-19:0', 'Wednesday': '11:0-19:0', 'Friday': '11:0-19:0', 'Saturday': '11:0-19:0', 'Sunday': '11:0-19:0'}",1,53.550455,-113.489228,Barbecue King City,T5H 2L6,6,4.5,AB
1795,919 N 18th St,teGUSCn6Vlrs07qIgilFHA,"American (Traditional), Restaurants, Chinese",Philadelphia,"{'Wednesday': '12:0-12:30', 'Thursday': '12:0-12:30', 'Friday': '12:0-12:30', 'Saturday': '12:0-12:30', 'Sunday': '12:0-12:30'}",1,39.971725,-75.1657105,Oriental Kitchen,19130,8,2.5,PA
1822,10408 Jasper Avenue,2Z8LWDUbrUbe-o3KZE2r7Q,"Restaurants, Chinese, Noodles",Edmonton,"{'Monday': '11:0-21:0', 'Tuesday': '11:0-21:0', 'Wednesday': '11:0-21:0', 'Thursday': '11:0-21:0', 'Friday': '11:0-22:0', 'Saturday': '11:0-22:0', 'Sunday': '11:0-21:0'}",1,53.5412147,-113.4995711,Dagu Rice Noodle,T5J 1Z3,10,4.5,AB
1880,30611 US Highway 19 N,ehKY9vtzBULm68aTHzVP9A,"Chinese, Restaurants",Palm Harbor,,0,28.051163,-82.7385415,China Sea,34684,9,3,FL
1884,30611 US Hwy 19 N,peL7F35gY6nXuXDD-08LAA,"Restaurants, Chinese, Asian Fusion",Palm Harbor,"{'Monday': '11:0-22:0', 'Tuesday': '11:0-22:0', 'Wednesday': '11:0-22:0', 'Thursday': '11:0-22:0', 'Friday': '11:0-22:0', 'Saturday': '11:0-22:0', 'Sunday': '16:0-22:0'}",1,28.0512845,-82.7362063,Asian Kitchen,34684,51,4,FL
1988,8148 Olive Blvd,S87d-VjLFY8ZMoj6MUo_tg,"Chinese, Restaurants, Barbeque",University City,"{'Tuesday': '17:0-21:0', 'Wednesday': '17:0-21:0', 'Thursday': '17:0-21:0', 'Friday': '17:0-22:0', 'Saturday': '11:0-22:0', 'Sunday': '11:0-21:0'}",1,38.6731484,-90.3473109,Cate Zone Chinese Cafe,63130,264,4.5,MO
2074,311 De Baliviere Ave,yJ9FTZHLZRZL3voM12vDtQ,"Restaurants, Chinese",Saint Louis,"{'Monday': '11:0-22:0', 'Tuesday': '11:0-22:0', 'Wednesday': '11:0-22:0', 'Thursday': '11:0-22:0', 'Friday': '11:0-22:0', 'Saturday': '11:0-22:0'}",1,38.6491739,-90.2856249,Chinese Express,63112,7,3.5,MO
2132,7900 Watson Rd,UtfRoSHPShDwNBc1lLlZbw,"Chinese, Restaurants",Saint Louis,"{'Monday': '11:0-22:0', 'Tuesday': '11:0-22:0', 'Wednesday': '11:0-22:0', 'Thursday': '11:0-22:0', 'Friday': '11:0-22:0', 'Saturday': '11:0-22:0'}",1,38.5689735,-90.3378223,Dingho,63119,42,3.5,MO
2133,15 Village Center Dr,wH3UmxaHNV_Aj59A8g-yYg,"Specialty Food, Chinese, Ethnic Food, Restaurants, Food",Swedesboro,"{'Monday': '11:0-22:0', 'Tuesday': '11:0-22:0', 'Wednesday': '11:0-22:0', 'Thursday': '11:0-22:0', 'Friday': '11:0-22:0', 'Saturday': '11:0-22:0', 'Sunday': '12:0-22:0'}",1,39.756599,-75.353474,China Wok,8085,17,3,NJ
2189,1238 Township Line Rd,zDEzXNbn84HD0lR0KD0seg,"Restaurants, Chinese, Cafes",Drexel Hill,"{'Monday': '10:30-22:0', 'Tuesday': '10:30-22:0', 'Wednesday': '10:30-22:0', 'Thursday': '10:30-22:0', 'Friday': '10:30-23:0', 'Saturday': '10:30-23:0', 'Sunday': '11:30-21:0'}",1,39.95708954,-75.32067776,Szechuan Hill Chinese Restaurant,19026,53,3.5,PA
2192,11135 Pendleton Pike,Wap4vDPNHNGSG_SIanQolA,"Restaurants, Chinese",Indianapolis,,1,39.863261,-85.969627,Super China Buffet,46236,38,3.5,IN
2223,7930 Olive Blvd,8Zfo-9ZQWwC85wyBcRDb_Q,"Restaurants, Chinese, Szechuan, Noodles",St Louis,"{'Monday': '16:30-20:30', 'Tuesday': '16:30-20:30', 'Thursday': '16:30-20:30', 'Friday': '16:30-21:30', 'Saturday': '11:0-21:30', 'Sunday': '11:0-20:30'}",1,38.6724614,-90.341001,Chilispot,63130,117,4.5,MO
2302,"4931 W Esplanade Ave, Ste A",Lca4MeGf7g1K1GPD5Vu_Fw,"Cantonese, Restaurants, Chinese",Metairie,"{'Tuesday': '10:30-22:0', 'Wednesday': '10:30-22:0', 'Thursday': '10:30-22:0', 'Friday': '10:30-22:0', 'Saturday': '10:30-22:0', 'Sunday': '10:30-22:0'}",1,30.0174776,-90.1972824,Star Wok,70006,22,3.5,LA
2304,"1430 West Carmel Drive, Suite 100",q2cgYLHKRaujrQgSnqJPTA,"Chinese, Restaurants, Fast Food",Carmel,"{'Monday': '10:30-21:0', 'Tuesday': '10:30-21:0', 'Wednesday': '10:30-21:0', 'Thursday': '10:30-21:0', 'Friday': '10:30-21:30', 'Saturday': '11:0-21:30', 'Sunday': '11:0-20:30'}",1,39.9719092,-86.1542703,Panda Express,46032,39,3,IN
2327,459 Town Center Dr,ZND93WKIjNnISE3WldWPlw,"Restaurants, Chinese",Mooresville,"{'Monday': '0:0-0:0', 'Tuesday': '11:0-21:0', 'Wednesday': '11:0-21:0', 'Thursday': '11:0-21:0', 'Friday': '11:0-22:0', 'Saturday': '11:0-22:0', 'Sunday': '11:0-21:0'}",1,39.61910698,-86.35210515,Happy Wok,46158,17,4,IN
2328,600 S Governor Printz Blvd,e2DMbDxbA_Ur7A18mGuRsg,"American (New), Chinese, Restaurants",Lester,"{'Monday': '0:0-0:0', 'Tuesday': '16:0-22:30', 'Wednesday': '16:0-22:30', 'Thursday': '16:0-22:30', 'Friday': '16:0-22:30', 'Saturday': '16:0-22:30', 'Sunday': '16:0-22:0'}",0,39.8724622,-75.2791188,Hunan Garden,19029,10,4.5,PA
2374,7025 Bullard Ave,GZDkhotwnmGlpYUKxAwobw,"Restaurants, Cafeteria, Seafood, Comfort Food, Cajun/Creole, Chinese, Barbers, American (New), Beauty & Spas, Southern",New Orleans,"{'Monday': '10:0-21:0', 'Tuesday': '10:0-21:0', 'Wednesday': '10:0-21:0', 'Thursday': '10:0-21:0', 'Friday': '10:0-21:0', 'Saturday': '10:0-21:0', 'Sunday': '10:30-21:0'}",1,30.048176,-89.9622058,Bullard Seafood and Grill,70128,41,3.5,LA
2403,3978 W Hillsborough Ave,BAX4H5m3_8AFnNNjX-F6jw,"Restaurants, Chinese",Tampa,"{'Monday': '11:0-22:30', 'Tuesday': '11:0-22:30', 'Wednesday': '11:0-22:30', 'Thursday': '11:0-22:30', 'Friday': '11:0-23:0', 'Saturday': '11:0-23:0', 'Sunday': '12:0-22:0'}",1,27.9959616,-82.5088454,China House,33614,8,2.5,FL
2404,3730 S Kingshighway Blvd,JroMBSRiVq1u8-KZVDZh7g,"Restaurants, Chinese, Food",Saint Louis,"{'Monday': '11:0-22:0', 'Tuesday': '11:0-22:0', 'Wednesday': '11:0-22:0', 'Thursday': '11:0-22:0', 'Friday': '11:0-22:30', 'Saturday': '11:0-22:30', 'Sunday': '12:0-22:0'}",1,38.592301,-90.270873,New China,63109,87,4,MO
2412,2960 S Virginia St,SVSafDWg9r2Q5XEVOLPSSA,"Cantonese, Chinese, Restaurants, Dim Sum",Reno,"{'Monday': '11:0-21:0', 'Tuesday': '11:0-21:0', 'Wednesday': '11:0-21:0', 'Thursday': '11:0-21:0', 'Friday': '11:0-21:0', 'Saturday': '11:0-21:0', 'Sunday': '11:0-21:0'}",1,39.4961984,-119.7982188,Chinese Duck House,89502,250,3.5,NV
2414,8080 Old York Rd,s2y3qUChp3l-7j8YWsjNyw,"Chinese, Restaurants",Elkins Park,"{'Monday': '11:0-22:0', 'Tuesday': '11:0-22:0', 'Wednesday': '11:0-22:0', 'Thursday': '11:0-22:0', 'Friday': '11:0-23:0', 'Saturday': '11:0-23:0', 'Sunday': '12:30-21:30'}",1,40.0767727,-75.128654,Szechuan Mandarin Chinese Restaurant,19027,50,3.5,PA
2439,1800 West End Ave,aIflpZXlmofFGelTlqgGEQ,"Chinese, Indian, Restaurants, Asian Fusion, Cocktail Bars, Nightlife, Bars",Nashville,"{'Monday': '17:0-22:0', 'Tuesday': '17:0-22:0', 'Wednesday': '17:0-22:0', 'Thursday': '17:0-22:0', 'Friday': '17:0-22:0', 'Saturday': '12:0-22:0', 'Sunday': '12:0-22:0'}",1,36.15285326,-86.79598817,Inchin's Bamboo Garden,37203,151,4,TN
2446,1250 S Broad St,XT80TPuzEPP7t7x8-M9mxg,"Cantonese, Chinese, Restaurants",Trenton,"{'Monday': '11:0-23:0', 'Tuesday': '11:0-23:0', 'Wednesday': '11:0-23:0', 'Thursday': '11:0-23:0', 'Friday': '11:0-23:30', 'Saturday': '11:0-23:30', 'Sunday': '12:0-23:0'}",1,40.2034157,-74.7409276,Mr Wok,8610,5,2,NJ
2471,5609 Bensalem Blvd,UTm85DD1C_GMNrDzJVT9nA,"Chinese, Restaurants",Bensalem,"{'Tuesday': '11:0-22:0', 'Wednesday': '11:0-22:0', 'Thursday': '11:0-22:0', 'Friday': '11:0-23:0', 'Saturday': '11:0-23:0', 'Sunday': '12:0-22:0'}",1,40.1204471,-74.9053943,New King Wok,19020,20,3,PA
2480,"10933 23 Avenue NW, Unit 115",fmeU9uSwRHpfBSNnYQbeXQ,"Chinese, Restaurants",Edmonton,,1,53.452975,-113.5108899,Good Taste Chinese Take Out & Deliver,T6J 7B9,13,3,AB
2495,1621 Tower Grove Ave,ZhCnKe7U1TsHWnAlXl8Isw,"Restaurants, American (New), Southern, Chinese",Saint Louis,"{'Monday': '16:30-23:30', 'Tuesday': '16:30-23:30', 'Wednesday': '16:30-23:30', 'Thursday': '16:30-23:30', 'Friday': '16:30-23:30', 'Saturday': '16:30-23:30', 'Sunday': '10:30-20:0'}",0,38.620026,-90.256022,Old Standard Fried Chicken,63110,195,3,MO
2509,5022 E 10th Ave,9XMPek9GZ4KAf2sbCBRAKw,"Chinese, Restaurants",Tampa,"{'Monday': '11:0-22:0', 'Tuesday': '11:0-22:0', 'Wednesday': '11:0-22:0', 'Thursday': '11:0-22:0', 'Friday': '11:0-23:0', 'Saturday': '11:0-23:0', 'Sunday': '12:0-22:0'}",1,27.9644881,-82.4008771,Far East Chinese Restaurant,33619,27,4.5,FL
2554,1345 W Chester Pike,iSHKYbQfB2q6sGnd7AD2_A,"Food, Chinese, Restaurants",Havertown,"{'Tuesday': '11:0-21:30', 'Wednesday': '11:0-21:30', 'Thursday': '11:0-21:30', 'Friday': '11:0-22:0', 'Saturday': '11:0-21:45', 'Sunday': '1:0-21:30'}",1,39.9743416,-75.3218129,Szechuan Lei Lei,19083,27,3.5,PA
2610,1038 Race St,SADPX8WX34EQDj_jqtacMw,"Chinese, Food, Bubble Tea, Restaurants, Dim Sum, Szechuan",Philadelphia,"{'Monday': '11:30-22:30', 'Tuesday': '11:30-22:30', 'Wednesday': '11:30-22:30', 'Thursday': '11:30-22:30', 'Friday': '11:30-23:0', 'Saturday': '11:30-23:0', 'Sunday': '11:30-22:30'}",1,39.9554771,-75.1572987,Bai Wei,19107,231,4,PA
2618,601 Terry Pkwy,T98VzPrkD9vuPFzJl6M_bg,"Chinese, Restaurants",Gretna,"{'Monday': '11:0-22:0', 'Tuesday': '11:0-22:0', 'Wednesday': '11:0-22:0', 'Thursday': '11:0-22:0', 'Friday': '11:0-22:30', 'Saturday': '11:0-22:30', 'Sunday': '11:0-22:0'}",1,29.903101,-90.02933,Meng Ting Chinese Restaurant,70056,9,2.5,LA
2642,2592 E Bearss Ave,ovLgaPIMrx7PDZPrEpTMvg,"Salad, Pizza, Barbeque, Soup, Restaurants, Taiwanese, Chinese",Tampa,"{'Monday': '11:30-21:0', 'Tuesday': '11:30-21:0', 'Wednesday': '11:30-21:0', 'Thursday': '11:30-21:0', 'Friday': '11:30-21:0', 'Saturday': '11:30-21:0', 'Sunday': '11:30-21:0'}",1,28.0807642,-82.4318998,Mei's World Pizza,33613,117,4.5,FL
2660,708 Chestnut St,KMQrA590JiprwoOnu4UKVQ,"Asian Fusion, Pizza, Salad, Restaurants, Chinese",Philadelphia,,0,39.9491534,-75.1529191,Park Salad Bar,19106,16,3.5,PA
2707,"3321 E Black Horse Pike, Ste 7",e7vnHEpZdU83u2ZERPSDpg,"Soup, Chinese, Restaurants",Sicklerville,"{'Monday': '11:0-21:0', 'Tuesday': '11:0-21:0', 'Wednesday': '11:0-21:0', 'Thursday': '11:0-21:0', 'Friday': '11:0-22:0', 'Saturday': '11:0-22:0', 'Sunday': '12:0-21:0'}",1,39.7276,-75.0317146,Win Golden Wok,8081,14,3.5,NJ
2723,14957 N Florida Ave,iWyX_hezq_Ga9x5WnN4S5Q,"Restaurants, Chinese, Chicken Shop, Seafood",Tampa,"{'Monday': '11:0-22:0', 'Tuesday': '11:0-22:0', 'Wednesday': '11:0-22:0', 'Thursday': '11:0-22:0', 'Friday': '11:0-23:0', 'Saturday': '11:0-23:0', 'Sunday': '12:0-22:0'}",1,28.086521,-82.459133,China Gate Take Out Restaurant,33613,14,2.5,FL
2735,168-9700 105 Ave,v-CGMnVeRT_xRV6q_B7ySw,"Chinese, Soup, Hot Pot, Restaurants",Edmonton,"{'Monday': '17:0-1:30', 'Tuesday': '17:0-1:30', 'Wednesday': '17:0-1:30', 'Thursday': '17:0-1:30', 'Friday': '17:0-2:30', 'Saturday': '17:0-2:30', 'Sunday': '17:0-2:30'}",0,53.5486954,-113.4887666,Urban Shabu,T5H 4J1,24,3.5,AB
2752,"400 Rte 38, Ste 8120",fEFCglnS2V7MzqoxBoJVWA,"Restaurants, Chinese, Asian Fusion, Fast Food, Gluten-Free",Moorestown,"{'Monday': '11:0-21:0', 'Tuesday': '11:0-21:0', 'Wednesday': '11:0-21:0', 'Thursday': '11:0-21:0', 'Friday': '11:0-22:0', 'Saturday': '11:0-22:0', 'Sunday': '11:0-21:0'}",0,39.946225,-74.961052,Pei Wei,8057,75,3.5,NJ
2754,404 Rt 70 E,Wr2k0Vz8RbcumYulp-jIrA,"Restaurants, Chinese, Szechuan",Cherry Hill,"{'Monday': '11:30-21:0', 'Tuesday': '11:30-21:0', 'Wednesday': '11:30-21:0', 'Thursday': '11:30-21:0', 'Friday': '11:30-21:0', 'Saturday': '11:30-21:0', 'Sunday': '11:30-21:0'}",1,39.91302,-75.0023132,Han Dynasty,8034,411,4,NJ
2757,91 York Rd,rpZrUHxtj5JZuq76FkbNdA,"Dim Sum, Asian Fusion, Restaurants, Chinese, Bars, Nightlife",Willow Grove,"{'Monday': '11:0-22:0', 'Tuesday': '11:0-22:0', 'Wednesday': '11:0-22:0', 'Thursday': '11:0-22:0', 'Friday': '11:0-22:0', 'Saturday': '11:0-22:0', 'Sunday': '13:0-22:0'}",0,40.1432345,-75.1141046,Mandarin Garden,19090,68,4,PA
2759,12525 Old Meridian St,KDSNlPbYpO2SZ0NO4a2BbQ,"Chinese, Restaurants",Carmel,"{'Monday': '11:0-21:30', 'Tuesday': '11:0-21:30', 'Wednesday': '11:0-21:30', 'Thursday': '11:0-21:30', 'Friday': '11:0-22:0', 'Saturday': '11:0-22:0', 'Sunday': '12:0-21:0'}",0,39.9721364,-86.1510155,Ming's Wok,46032,18,2.5,IN
2760,365 Canal St,wohNm4WmjcUIvTT3J2R58A,"Chinese, Restaurants",New Orleans,,1,29.951306,-90.0654788,Panda Cafe,70130,7,3,LA
2770,"600 Washington Ave, Ste 18 A",0zWAsCBzvuCI_Ydx7yH1Jw,"Noodles, Chinese, Restaurants, Soup",Philadelphia,"{'Monday': '11:0-22:30', 'Tuesday': '11:0-22:30', 'Wednesday': '11:0-22:30', 'Thursday': '11:0-22:30', 'Friday': '11:0-23:0', 'Saturday': '11:0-23:0', 'Sunday': '11:0-22:30'}",1,39.93463227,-75.15517476,Shing Kee,19147,84,4,PA
2771,588 Hermitage Road NW,o3ZzCZCSqK70-S_NnQ4DZA,"Chinese, Restaurants",Edmonton,"{'Monday': '15:0-0:0', 'Tuesday': '15:0-0:0', 'Wednesday': '15:0-0:0', 'Thursday': '15:0-0:0', 'Friday': '15:0-0:0', 'Saturday': '15:0-1:0', 'Sunday': '15:0-22:0'}",1,53.5870245,-113.4059748,Wing's Restaurant,T5A 4N2,14,2.5,AB
2775,11336 Ridge Rd,tXZXimXWvx-jF6UVgjE3Og,"Restaurants, Chinese",New Port Richey,"{'Monday': '10:30-22:0', 'Tuesday': '10:0-22:0', 'Wednesday': '10:30-22:0', 'Thursday': '10:30-22:0', 'Friday': '10:30-23:0', 'Saturday': '10:30-23:0', 'Sunday': '12:0-22:0'}",1,28.2737859,-82.6278954,China Gate Restaurant,34654,15,3,FL
2815,1828 S St,KgozvZ1UFfXuJToqe8CfQg,"Chinese, Restaurants",Philadelphia,"{'Monday': '11:0-22:0', 'Tuesday': '11:0-22:0', 'Thursday': '11:0-22:0', 'Friday': '11:0-22:30', 'Saturday': '11:0-22:30', 'Sunday': '11:0-22:0'}",1,39.94440605,-75.17288062,Fortune Chinese Restaurant,19146,87,3.5,PA
2830,4489 Forest Park Ave,TRxR32_T_7Ly_RW4Ke97fw,"Chinese, Restaurants",Saint Louis,"{'Monday': '11:0-21:30', 'Tuesday': '11:0-21:30', 'Wednesday': '11:0-21:30', 'Thursday': '11:0-21:30', 'Friday': '11:0-22:0', 'Saturday': '11:30-22:30', 'Sunday': '11:30-21:30'}",1,38.6387913,-90.2587654,Hon's Wok,63108,140,2.5,MO
2916,425 E High St,zovW14jubnMvimCBKn7Jhg,"Burgers, Chinese, American (New), Restaurants",Pottstown,"{'Monday': '11:0-23:0', 'Tuesday': '11:0-23:0', 'Wednesday': '11:0-23:0', 'Thursday': '11:0-23:0', 'Friday': '11:0-23:30', 'Saturday': '11:0-23:30', 'Sunday': '12:0-23:0'}",1,40.24513145,-75.64330509,Hing San,19464,7,3.5,PA
3030,439 N Route 73,-49YlJ2GGzgmQ71FX9gGyg,"Restaurants, Chinese",Berlin Township,"{'Tuesday': '10:30-22:0', 'Wednesday': '10:30-22:0', 'Thursday': '10:30-22:0', 'Friday': '10:30-23:0', 'Saturday': '10:30-23:0', 'Sunday': '12:0-22:0'}",1,39.8127599,-74.9296987,Pineapple Asian Restaurant,8091,27,4,NJ
3036,906 Marlton Pike W,avL_U1I6iFd8CIHVds31zg,"Restaurants, Chinese",Cherry Hill,"{'Monday': '11:0-22:0', 'Tuesday': '11:0-22:0', 'Wednesday': '11:0-22:0', 'Thursday': '11:0-22:0', 'Friday': '11:0-22:30', 'Saturday': '11:0-22:30', 'Sunday': '13:0-22:0'}",0,39.9162012,-75.02131483,New China Moon,8002,8,4,NJ
3052,357 Main St,e2HO_lbs0uP1-Vis3WKG7w,"Chinese, Fast Food, Restaurants",Pennsburg,"{'Tuesday': '11:0-21:30', 'Wednesday': '11:0-21:30', 'Thursday': '11:0-21:30', 'Friday': '11:0-22:30', 'Saturday': '11:0-22:30'}",1,40.3988025,-75.497484,Golden Bowl II Chinese Restaurant,18073,9,4,PA
3053,1714 Marsh Rd,xtbAqP_Ftb3kYJ53Hv6H5w,"Restaurants, Chinese",Wilmington,,0,39.8013453,-75.5051797,Top China Buffet,19810,5,2.5,DE
3070,410 Lalor St,_I-Ej1Mfyl_5XEnAn2_1PA,"Asian Fusion, Chinese, Restaurants, Seafood",Trenton,"{'Monday': '11:0-22:0', 'Tuesday': '11:0-22:0', 'Wednesday': '11:0-22:0', 'Thursday': '11:0-22:0', 'Friday': '11:0-23:0', 'Saturday': '11:0-23:0', 'Sunday': '11:0-22:0'}",1,40.199239,-74.752673,China Cafe,8611,8,4,NJ
3071,"229 Plaza Blvd, Ste 21",DsWMaVazRG8qX2rVywGedw,"Restaurants, Chinese",Morrisville,"{'Monday': '11:0-22:30', 'Tuesday': '11:0-22:30', 'Wednesday': '11:0-22:30', 'Thursday': '11:0-22:30', 'Friday': '11:0-23:30', 'Saturday': '11:0-23:30', 'Sunday': '12:0-22:30'}",1,40.205946,-74.802112,Great Shanghai Chinese Restaurant,19067,19,3.5,PA
3077,"9450 E Golf Links Rd, Ste 102",WLiqfxv_GhFFA5sm878a2w,"Chinese, Restaurants",Tucson,"{'Monday': '11:0-21:0', 'Tuesday': '11:0-21:0', 'Wednesday': '11:0-21:0', 'Thursday': '11:0-21:0', 'Friday': '11:0-21:0', 'Saturday': '11:0-21:0', 'Sunday': '11:0-21:0'}",1,32.1903953,-110.7915138,Wei Asian Cafe,85730,109,4,AZ
3096,1934 Liacouras Walk,qfFKVxDqFbPtBTlKGQDapQ,"Chinese, Restaurants",Philadelphia,"{'Monday': '10:0-21:0', 'Tuesday': '10:0-21:0', 'Wednesday': '10:0-21:0', 'Thursday': '10:0-21:0', 'Friday': '10:0-21:0', 'Saturday': '11:0-21:0', 'Sunday': '12:0-21:0'}",1,39.982461,-75.156031,Master Wok,19122,9,3.5,PA
3128,7421 Heathrow Way,6ShzbSXGB9vjHHE-ZV_ejA,"Food, Specialty Food, Ethnic Food, Chinese, Restaurants",Indianapolis,"{'Monday': '10:30-22:0', 'Tuesday': '10:30-22:0', 'Wednesday': '10:30-22:0', 'Thursday': '10:30-22:0', 'Friday': '10:30-22:0', 'Saturday': '11:0-22:0', 'Sunday': '12:0-21:30'}",1,39.6796706,-86.29115481,Side Wok Cafe,46241,28,4,IN
3130,8350 E 96th St,DgA-_6242CtjmierRWmO9w,"Restaurants, Chinese",Fishers,,0,39.927764,-86.0201407,Golden Wok,46038,12,2.5,IN
3187,1107 Mantua Pike,W2mcChlYqeVirWSWSLgoDA,"Chinese, Restaurants",West Deptford,"{'Tuesday': '11:0-21:30', 'Wednesday': '11:0-21:30', 'Thursday': '11:0-21:30', 'Friday': '11:0-21:30', 'Saturday': '11:0-21:30', 'Sunday': '12:0-21:30'}",1,39.802295,-75.170298,Happy Wok,8051,10,2.5,NJ
3227,9333 Double R Blvd,dpwkz52tHB2MCPv53I2aRA,"Restaurants, Chinese, Asian Fusion, Sushi Bars",Reno,"{'Monday': '11:0-20:0', 'Tuesday': '11:0-20:0', 'Wednesday': '11:0-20:0', 'Thursday': '11:0-20:0', 'Friday': '11:0-20:0', 'Saturday': '11:0-21:30'}",1,39.450834,-119.758568,Jazmine,89521,455,3.5,NV
3236,3326 S McCarran Blvd,6UizqjvZhKZkQhHstXVPUg,"Chinese, Restaurants",Reno,,0,39.483857,-119.7469072,China Empire,89502,54,2.5,NV
3244,"3120 Cleary Ave, Ste A",buJQ6k-bLrycLwbB5Xp5YQ,"Restaurants, Chinese",Metairie,"{'Monday': '0:0-0:0', 'Tuesday': '11:0-21:0', 'Wednesday': '11:0-21:0', 'Thursday': '11:0-21:0', 'Friday': '11:0-21:0', 'Saturday': '11:30-21:0'}",0,30.0021853,-90.1726033,JH Cafe,70002,58,4.5,LA
3246,3918 Lebanon Pike,rTC9QU8Vz516Tkqdwq6KSA,"Chinese, Restaurants, Seafood",Hermitage,"{'Tuesday': '10:45-22:0', 'Wednesday': '10:45-22:0', 'Thursday': '10:45-22:0', 'Friday': '10:45-22:30', 'Saturday': '10:45-22:30', 'Sunday': '12:0-22:0'}",1,36.194496,-86.623621,Super Wok,37076,48,3,TN
3328,10703 103 Street NW,XhQYUlI68tXpwJQ0QXjJgw,"Food, Chinese, Comfort Food, Restaurants, Specialty Food, Ethnic Food, Halal, Noodles, Soup",Edmonton,"{'Monday': '0:0-0:0', 'Tuesday': '17:0-22:0', 'Wednesday': '17:0-22:0', 'Thursday': '17:0-22:0', 'Friday': '17:0-22:0', 'Saturday': '11:30-19:30', 'Sunday': '17:0-22:0'}",0,53.551585,-113.496704,Wheat Garden,T5H 2V7,19,4,AB
3342,11440 US-301,0cg8BdPanf-DAA8AYuk6Zg,"Chinese, Restaurants",Riverview,"{'Monday': '11:0-22:0', 'Wednesday': '11:0-22:0', 'Thursday': '11:0-22:0', 'Friday': '11:0-23:0', 'Saturday': '11:0-23:0', 'Sunday': '12:0-22:0'}",1,27.8342572,-82.3267195,China Chef,33569,33,3.5,FL
3346,8654 E Washington St,LuyXtOJzCTPH5pJbslygRg,"Chinese, Restaurants",Indianapolis,,1,39.7739086,-86.0150672,China King,46219,12,3.5,IN
3351,778 E Johnson Hwy,lpbt16sSm4BTcfeq4j9JOg,"Restaurants, Chinese",Norristown,"{'Monday': '11:0-22:30', 'Tuesday': '11:0-22:30', 'Wednesday': '11:0-22:30', 'Thursday': '11:0-22:30', 'Friday': '11:0-23:30', 'Saturday': '11:0-23:30', 'Sunday': '12:0-22:30'}",1,40.124835,-75.3167966,Super Wok,19409,52,3.5,PA
3371,1427 Kass Cir,aNsZYqke7GYx8xyYO8a5OQ,"Restaurants, Chinese",Spring Hill,"{'Monday': '11:30-21:0', 'Tuesday': '11:30-21:0', 'Wednesday': '11:30-21:0', 'Thursday': '11:30-21:0', 'Friday': '11:30-21:0', 'Saturday': '11:30-21:0'}",1,28.4524906,-82.59233918,China Garden,34606,22,4,FL
3375,5500 Lancaster Ave,vR9SKMvXCXyrl6u5ouWHBQ,"Asian Fusion, Chinese, Restaurants, Halal",Philadelphia,"{'Monday': '11:0-23:0', 'Tuesday': '11:0-23:0', 'Wednesday': '11:0-23:0', 'Thursday': '11:0-23:0', 'Friday': '11:0-0:0', 'Saturday': '11:0-0:0', 'Sunday': '11:0-22:0'}",1,39.9798334,-75.232945,Chan's Halal Restaurant,19131,44,3,PA
3385,5548 Wayne Ave,R76nXl5oTep-d1ZGPZSimQ,"Restaurants, Chinese, American (Traditional), Fast Food, Breakfast & Brunch",Philadelphia,"{'Monday': '6:0-15:0', 'Tuesday': '6:0-15:0', 'Wednesday': '6:0-15:0', 'Thursday': '6:0-15:0', 'Friday': '6:0-15:0', 'Saturday': '6:0-15:0'}",1,40.03145806,-75.17884764,Trio Breakfast & Lunch,19144,35,3,PA
3394,"3868 Gentilly Blvd, Ste A",4DTGsmjExLNCOZlXuqXL2g,"Seafood, Cajun/Creole, Restaurants, Chicken Wings, Chinese",New Orleans,"{'Monday': '10:30-20:0', 'Tuesday': '10:30-20:0', 'Wednesday': '10:30-20:0', 'Thursday': '10:30-20:0', 'Friday': '10:30-20:0', 'Saturday': '11:0-18:0'}",1,30.00252095,-90.04608394,Boiling Pot,70122,22,4,LA
3399,1539 Main St,jT8tEryYV9JznR2beI4Vtw,"Chinese, Restaurants",Dunedin,"{'Monday': '11:0-22:0', 'Tuesday': '11:0-22:0', 'Wednesday': '11:0-22:0', 'Thursday': '11:0-22:0', 'Friday': '11:0-23:0', 'Saturday': '11:0-23:0', 'Sunday': '12:0-22:0'}",0,28.02421823,-82.77314682,China Taste,34698,19,3,FL
3411,4047 Market St,MN-Em6pY0ZXZQsLv6uBhrA,"Chinese, Restaurants",Philadelphia,,1,39.9576083,-75.2036365,Asian Garden,19104,10,3,PA
3414,6842 Bustleton Ave,FIQZMB4G1pfqOAByuJ1SYA,"Dim Sum, Diners, Seafood, Restaurants, American (Traditional), Chinese, Cantonese",Philadelphia,"{'Monday': '9:0-23:0', 'Tuesday': '9:0-23:0', 'Wednesday': '9:0-23:0', 'Thursday': '9:0-23:0', 'Friday': '9:0-23:0', 'Saturday': '9:0-23:0', 'Sunday': '9:0-23:0'}",0,40.041631,-75.06483,Ruby Garden Restaurant,19149,26,3,PA
3486,"Silver Legacy Resort Casino, 407 N Virginia St",ZfpUcFXlqlKl50BGutgvnA,"Food Stands, Restaurants, Chinese, American (Traditional)",Reno,,0,39.5304383,-119.8147424,Fresh Express,89501,12,3.5,NV
3570,10508 101 Street NW,CRVxk_UcndgD2URaeTnHGQ,"American (Traditional), Lounges, Mediterranean, Restaurants, Nightlife, Middle Eastern, Chinese, Bars",Edmonton,"{'Monday': '11:0-0:0', 'Tuesday': '11:0-0:0', 'Wednesday': '11:0-0:0', 'Thursday': '11:0-0:0', 'Friday': '11:0-0:0', 'Saturday': '11:0-0:0', 'Sunday': '12:0-21:0'}",0,53.5479316,-113.4939271,Golden Szechuan,T5H 2R8,5,4.5,AB
3596,2661 E Cumberland St,I9DCtzUgR4gamBFMVsdY8g,"Chinese, Restaurants, Sushi Bars",Philadelphia,,1,39.976126,-75.119234,Capital Beer,19125,75,3.5,PA
3610,8225 Germantown Ave,piUZEndStsWNnRUwOPk8jA,"Chinese, Cantonese, Restaurants, Beer, Wine & Spirits, Food",Philadelphia,"{'Monday': '11:30-21:30', 'Tuesday': '11:30-21:30', 'Wednesday': '11:30-21:30', 'Thursday': '11:30-21:30', 'Friday': '11:30-22:30', 'Saturday': '11:30-22:30', 'Sunday': '13:30-21:0'}",1,40.074311,-75.202909,King's Garden,19118,83,3.5,PA
3621,172 E Butler Ave,KIph7iH97vnDrgcdaqEMFQ,"Restaurants, Chinese",Ambler,"{'Monday': '11:0-22:0', 'Tuesday': '11:0-22:0', 'Wednesday': '11:0-22:0', 'Thursday': '11:0-22:0', 'Friday': '11:0-23:0', 'Saturday': '11:0-23:0', 'Sunday': '12:0-22:0'}",1,40.155461,-75.2193272,Golden House,19002,16,3,PA
3646,6623 Delmar Blvd,aS-YkC7fLQVEvsFZXj_1aQ,"Chinese, Restaurants",University City,"{'Monday': '12:0-21:0', 'Tuesday': '12:0-21:0', 'Wednesday': '12:0-21:0', 'Thursday': '12:0-21:0', 'Friday': '12:0-21:0', 'Saturday': '12:0-21:0', 'Sunday': '12:0-21:0'}",0,38.6562515,-90.3063094,Joy Luck Chinese Express Grill,63130,6,3,MO
3651,219 N 11th St,VRnJgj0IvxoksHppE78X2Q,"Dim Sum, Restaurants, Cantonese, Chinese",Philadelphia,"{'Monday': '11:30-22:0', 'Tuesday': '11:30-22:0', 'Wednesday': '11:30-22:0', 'Thursday': '11:30-22:0', 'Friday': '11:30-22:0', 'Saturday': '11:30-22:0', 'Sunday': '11:30-22:0'}",1,39.9562631,-75.1570795,Lee How Fook,19107,231,4,PA
3660,11461 Old Nashville Hwy,#NAME?,"Restaurants, Chinese",Smyrna,"{'Monday': '10:30-22:0', 'Tuesday': '10:30-22:0', 'Wednesday': '10:30-22:0', 'Thursday': '10:30-22:0', 'Friday': '10:30-22:30', 'Saturday': '10:30-22:30', 'Sunday': '11:0-22:0'}",1,35.957141,-86.519817,Song Da,37167,25,4,TN
3701,230 Montgomery Mall,wUPDfo4H9YK3ioACd4FmmQ,"Asian Fusion, Chinese, Food Court, Restaurants",North Wales,,1,40.234409,-75.244313,China Max,19454,6,3.5,PA
3706,115 S Black Horse Pike,yq6QpxblbjGnqmEeeukfYg,"Restaurants, Chinese",Bellmawr,"{'Monday': '10:30-22:30', 'Tuesday': '10:30-22:30', 'Wednesday': '10:30-22:30', 'Thursday': '10:30-22:30', 'Friday': '10:30-23:30', 'Saturday': '10:30-23:30', 'Sunday': '12:30-22:30'}",1,39.8653498,-75.0784989,Yummy Yummy,8031,26,4,NJ
3707,"196 W Ridge Pike, Unit 178",aVGSnXBXFuLXAihXZSf7DQ,"Restaurants, Chinese",Royersford,"{'Monday': '0:0-0:0', 'Wednesday': '11:0-21:30', 'Thursday': '11:0-21:30', 'Friday': '11:0-22:15', 'Saturday': '11:0-22:15', 'Sunday': '12:0-21:30'}",1,40.22485595,-75.51410028,Tangs Garden,19468,25,3.5,PA
3712,10212 96 Street NW,3Yogz58lIto-kceF2y-THg,"Chinese, Restaurants",Edmonton,"{'Monday': '0:0-0:0', 'Tuesday': '10:0-0:0', 'Wednesday': '10:0-0:0', 'Thursday': '10:0-0:0', 'Friday': '10:0-1:0', 'Saturday': '10:0-1:0', 'Sunday': '10:0-0:0'}",1,53.5448892,-113.4830421,Double Greeting Wonton House,T5H 2G7,52,4,AB
3714,301 N. Carrollton Ave.,vng5PxNaiq3aoNn4HNNxEw,"Chinese, Fast Food, Restaurants, Gluten-Free, Asian Fusion",New Orleans,"{'Monday': '10:30-21:0', 'Tuesday': '10:30-21:0', 'Wednesday': '10:30-21:0', 'Thursday': '10:30-21:0', 'Friday': '10:30-22:0', 'Saturday': '10:30-22:0', 'Sunday': '10:30-21:0'}",0,29.9769533,-90.0992934,Pei Wei,70119,26,2,LA
3742,"1 Southview Plz, Ste A",c2HzB7UmtGnXSOR4bg3-JQ,"Restaurants, Chinese",O Fallon,"{'Monday': '11:0-21:30', 'Tuesday': '11:0-21:30', 'Wednesday': '11:0-21:30', 'Thursday': '11:0-21:30', 'Friday': '11:0-22:30', 'Saturday': '11:0-22:30', 'Sunday': '11:0-22:0'}",0,38.58096425,-89.9095141,Dragon Palace,62269,9,2.5,IL
3745,4038 Butler Hill Rd,YgXBo2oMJXlDDafP6fqUTw,"Chinese, Restaurants",Saint Louis,"{'Tuesday': '11:0-21:0', 'Wednesday': '11:0-21:0', 'Thursday': '11:0-21:0', 'Friday': '11:0-21:30', 'Saturday': '12:0-21:30', 'Sunday': '12:0-21:0'}",1,38.4849136,-90.34775476,Lucky China,63129,24,3,MO
3750,"3538 Murfreesboro Pike, Ste 307",OSkLTJeSDAqdcfPGLPj81A,"Restaurants, Chinese",Antioch,"{'Monday': '10:30-22:0', 'Tuesday': '10:30-22:0', 'Wednesday': '10:30-22:0', 'Thursday': '10:30-22:0', 'Friday': '10:30-22:30', 'Saturday': '10:30-22:30', 'Sunday': '12:0-22:0'}",1,36.0528242,-86.6170434,Chopstick House,37013,78,4,TN
3753,6168 Gunn Hwy,wA7v8fiuWZ4qOW12HAVcGg,"Restaurants, Chinese",Tampa,"{'Monday': '11:0-22:0', 'Tuesday': '11:0-22:0', 'Wednesday': '11:0-22:0', 'Thursday': '11:0-22:0', 'Friday': '11:0-23:0', 'Saturday': '11:0-23:0', 'Sunday': '12:0-22:0'}",1,28.0635922,-82.5511343,Grand China,33625,19,3.5,FL
3755,263 E County Line Rd,uKdQFH6QFdnifbF6F9DUgQ,"Chinese, Restaurants",Warminster,"{'Monday': '11:0-22:0', 'Tuesday': '11:0-22:0', 'Wednesday': '11:0-22:0', 'Thursday': '11:0-22:0', 'Friday': '11:0-23:0', 'Saturday': '11:0-23:0', 'Sunday': '12:0-22:0'}",1,40.18078,-75.08664,Golden China Chinese Restaurant,18974,30,4,PA
3760,"1350 W Irvington Rd, Ste 100",Y1ZdPCfQ4ndVAmj9lx6I7w,"Buffets, Restaurants, Sushi Bars, Chinese",Tucson,"{'Monday': '11:0-21:30', 'Tuesday': '11:0-21:30', 'Wednesday': '11:0-21:30', 'Thursday': '11:0-21:30', 'Friday': '11:0-22:0', 'Saturday': '11:0-22:0', 'Sunday': '11:0-21:30'}",1,32.1639837,-110.993741,China Olive Super Buffet,85746,38,2.5,AZ
3803,8813 Mitchell Blvd,LMY6MT2btyp6q3eXWB2LMA,"Chinese, Restaurants",New Port Richey,"{'Monday': '11:0-22:0', 'Tuesday': '11:0-22:0', 'Wednesday': '11:0-22:0', 'Thursday': '11:0-22:0', 'Friday': '11:0-22:30', 'Saturday': '11:0-22:30', 'Sunday': '12:0-22:0'}",1,28.188054,-82.668902,China Wok,34655,44,4,FL
3817,131 N. Fairview Ave.,Ak_vHsHsYRP928VHVRL_tQ,"Restaurants, Chinese, Fast Food",Goleta,"{'Monday': '10:0-21:30', 'Tuesday': '10:0-21:30', 'Wednesday': '10:0-21:30', 'Thursday': '10:0-21:30', 'Friday': '10:0-22:0', 'Saturday': '10:0-22:0', 'Sunday': '10:30-21:30'}",1,34.441624,-119.832865,Panda Express,93117,76,2.5,CA
3841,7143 N Michigan Rd,vSrRnFtCkZsC4Z1LNgt0AA,"Chinese, Restaurants",Indianapolis,"{'Monday': '10:30-22:0', 'Tuesday': '10:30-22:0', 'Wednesday': '10:30-22:0', 'Thursday': '10:30-22:0', 'Friday': '10:30-23:0', 'Saturday': '10:30-23:0', 'Sunday': '12:0-22:0'}",0,39.8840231,-86.2094073,China Kitchen,46268,17,2.5,IN
3877,10425 100th Avenue NW,RlLtCPvjTA3bS1_4DFvBRw,"Restaurants, Chinese",Edmonton,,1,53.538694,-113.500775,P & L Chinese Restaurant,T5J 0A3,10,4,AB
3881,4880 Sun City Center Blvd,uPQDMKhZWeTj2FAGdeNtYw,"Chinese, Restaurants",Sun City Center,"{'Monday': '11:0-22:0', 'Tuesday': '11:0-22:0', 'Wednesday': '11:0-22:0', 'Thursday': '11:0-22:0', 'Friday': '11:0-23:0', 'Saturday': '11:0-23:0', 'Sunday': '12:0-22:0'}",1,27.714555,-82.335875,China Chen Restaurant,33573,21,3,FL
3943,"6280 Sharlands Ave, Ste 102",F3n0sB5Dqn-N2fAA5TgmFQ,"Restaurants, Chinese",Reno,"{'Monday': '11:0-21:0', 'Tuesday': '11:0-21:0', 'Wednesday': '11:0-21:0', 'Thursday': '11:0-21:0', 'Friday': '11:0-21:0', 'Saturday': '11:0-21:0', 'Sunday': '11:30-21:0'}",1,39.5171298,-119.8859804,China Kitchen,89523,141,3.5,NV
4010,11198 Spring Hill Dr,U8YI5k4c392EmPY7NsRZZg,"Chinese, Restaurants",Spring Hill,"{'Monday': '11:0-22:0', 'Tuesday': '11:0-22:0', 'Wednesday': '11:0-22:0', 'Thursday': '11:0-22:0', 'Friday': '11:0-22:45', 'Saturday': '11:0-22:45', 'Sunday': '12:0-22:0'}",1,28.460833,-82.538091,China Kitchen,34609,20,4,FL
4027,7411 Stenton Ave,X3pLW1Fq9SlbrUFsxgynwA,"Restaurants, Chinese",Philadelphia,,1,40.0608409,-75.1672091,Moy Fong Restaurant,19150,25,3.5,PA
4055,1491 E High St,GkFnJIdtSrtyfxSQYWSmew,"Chinese, Food, Restaurants",Pottstown,,1,40.2440827,-75.616376,Hong Kong House,19464,15,2.5,PA
4070,6649 Castor Ave,AHqYW_taqAvhBkYBElkcTQ,"Dim Sum, Noodles, Restaurants, Food, Cantonese, Chinese, Asian Fusion",Philadelphia,"{'Monday': '0:0-0:0', 'Tuesday': '11:30-22:0', 'Wednesday': '11:30-22:0', 'Thursday': '11:30-22:0', 'Friday': '11:30-22:0', 'Saturday': '11:30-22:0', 'Sunday': '11:30-22:0'}",1,40.0428555,-75.0737309,Boom Buns,19149,25,4.5,PA
4074,1407 Blackwood Clementon Rd,JaNaklSkA7F-MtOY524kmQ,"Restaurants, Chinese",Clementon,"{'Monday': '11:0-22:30', 'Tuesday': '11:0-22:30', 'Wednesday': '11:0-22:30', 'Thursday': '11:0-22:30', 'Friday': '11:0-22:30', 'Saturday': '11:0-22:30', 'Sunday': '11:0-22:30'}",1,39.804833,-75.036734,No 1 China Chinese Restaurant,8021,15,3.5,NJ
4142,388D Saint Albert Trail,5mfkdR_YjnxHUWlNIKnaDQ,"Chinese, Noodles, Beer, Wine & Spirits, Food Delivery Services, Food, Restaurants, Dim Sum",Saint Albert,"{'Monday': '11:0-21:0', 'Tuesday': '11:0-21:0', 'Wednesday': '11:0-21:0', 'Thursday': '11:0-21:0', 'Friday': '11:0-22:0', 'Saturday': '11:0-22:0', 'Sunday': '11:0-21:0'}",1,53.6412597,-113.6262839,Wok House,T8N 5S8,17,3.5,AB
4158,"188 Front St, Ste 104",jRT5cMVEDYE9tp7c6UB_hg,"Restaurants, Asian Fusion, Chinese, Sushi Bars",Franklin,"{'Tuesday': '11:0-21:30', 'Wednesday': '11:0-21:30', 'Thursday': '11:0-21:30', 'Friday': '11:0-22:30', 'Saturday': '11:0-22:30', 'Sunday': '11:0-21:30'}",1,35.929388,-86.920227,Ching Asian Bistro,37064,55,4,TN
4190,3730 Tampa Rd,KVwQkBd8tJCDVc8O6_tMOg,"Chinese, Restaurants",Oldsmar,,0,28.043328,-82.6795145,Big Bok Choy Bistro,34677,30,4,FL
4254,350 N Milwaukee St,VLC9Nb_XBoMxBe146Bz2yg,"Chinese, Barbeque, Restaurants, Mongolian",Boise,"{'Monday': '10:0-21:0', 'Tuesday': '10:0-21:0', 'Wednesday': '10:0-21:0', 'Thursday': '10:0-21:0', 'Friday': '10:0-21:0', 'Saturday': '10:0-21:0', 'Sunday': '11:0-19:0'}",0,43.60766375,-116.2791878,Mongolian Bbq,83704,6,3.5,ID
4313,8110 Olive Blvd,Gw_PUqVT9e4AiC_kj9BJJw,"Restaurants, Chinese, Soup, Dim Sum",St. Louis,"{'Monday': '11:0-20:0', 'Wednesday': '11:0-20:0', 'Thursday': '11:0-20:0', 'Friday': '11:0-20:0', 'Saturday': '11:0-20:0', 'Sunday': '11:0-20:0'}",1,38.6730909,-90.3464044,Soup Dumplings STL,63130,166,4,MO
4326,1714 S 5th St,ue3FLSX9zINnCInCw-ilEQ,"Restaurants, Chinese",Philadelphia,"{'Monday': '11:0-21:30', 'Tuesday': '11:0-21:30', 'Wednesday': '11:0-21:30', 'Thursday': '11:0-21:30', 'Friday': '11:0-21:30', 'Saturday': '11:0-21:30', 'Sunday': '11:0-21:0'}",1,39.9268645,-75.1542417,Jade Palace,19148,6,5,PA
4334,"400 W 5th St, Ste 104",mcr1lAEdvGLMJhuPwI3I2A,"Food, Restaurants, Chinese, Bubble Tea, Taiwanese",Reno,"{'Monday': '0:0-0:0', 'Wednesday': '16:30-21:0', 'Thursday': '16:30-21:0', 'Friday': '16:30-21:0', 'Saturday': '16:30-21:0', 'Sunday': '16:30-21:0'}",1,39.52986741,-119.8201728,101 Taiwanese Cuisine,89503,1145,4,NV
4341,"1969 Sunset Point Rd, Ste 4",r13BI8s7vx6KP6_i6L6ZRw,"Restaurants, Chinese",Clearwater,"{'Monday': '11:0-22:0', 'Tuesday': '11:0-22:0', 'Wednesday': '11:0-22:0', 'Thursday': '11:0-23:0', 'Friday': '11:0-23:0', 'Saturday': '11:0-23:0', 'Sunday': '12:0-22:0'}",1,27.98958406,-82.7565309,China 88,33765,16,4,FL
4344,1308 W Girard Ave,u3Krpt7IdsJ26jj83uwNBQ,"Fast Food, Food Delivery Services, Desserts, American (New), Food Trucks, Restaurants, Chinese, Pizza, Food, Cheesesteaks",Philadelphia,"{'Tuesday': '12:0-22:0', 'Wednesday': '12:0-22:0', 'Thursday': '12:0-22:0', 'Friday': '12:0-0:0', 'Saturday': '12:0-0:0', 'Sunday': '11:0-18:0'}",1,39.9705409,-75.1577989,Rock N' Rolls Egg Rolls,19123,19,4,PA
4362,271 Atlantic Ave,ZsNUYyKsYz2XGa26230SuA,"Chinese, Restaurants",Columbus,"{'Monday': '11:0-22:0', 'Tuesday': '11:0-22:0', 'Wednesday': '11:0-22:0', 'Thursday': '11:0-22:0', 'Friday': '11:0-23:0', 'Saturday': '11:0-23:0', 'Sunday': '12:0-22:0'}",1,40.0725015,-74.7211101,Hong Kong Restaurant,8022,19,4,NJ
4381,6836 Bustleton Ave,32m9wJDqmjKrG2Jnn0QlCA,"Restaurants, Dim Sum, Chinese",Philadelphia,,0,40.0414916,-75.0648356,Spice Mandarin Cuisine,19149,12,3.5,PA
4437,12952 118 Avenue NW,uGPUYoZ5bgAqpa2TN0eDuQ,"Chinese, Restaurants",Edmonton,,0,53.5705577,-113.5480084,Lee Garden Restaurant,T5L 2L4,9,2,AB
4495,6462 N Oracle Rd,7KA6W8vNKhNzqtn3OrL8KQ,"Restaurants, Chinese",Tucson,"{'Monday': '11:0-21:0', 'Tuesday': '11:0-21:30', 'Wednesday': '11:0-21:30', 'Thursday': '11:0-21:30', 'Friday': '11:0-21:30', 'Saturday': '11:0-21:30', 'Sunday': '11:0-21:0'}",0,32.3227222,-110.9746762,May Flower Chinese Restaurant,85704,23,3.5,AZ
4516,4275 County Line Rd,kfN6roQlTHWvMNlYdq2zgw,"Restaurants, Chinese",Chalfont,"{'Monday': '11:0-21:30', 'Tuesday': '11:0-21:30', 'Wednesday': '11:0-21:30', 'Thursday': '11:0-21:30', 'Friday': '11:0-22:0', 'Saturday': '11:0-22:0', 'Sunday': '11:0-21:30'}",1,40.26637,-75.224217,Gourmet Wok,18914,72,3.5,PA
4519,18463 N US Hwy 41,kZltoFDBM8GLMSGCtj3EVw,"Restaurants, Chinese",Lutz,"{'Monday': '11:0-21:30', 'Tuesday': '11:0-21:30', 'Wednesday': '11:0-21:30', 'Thursday': '11:0-21:30', 'Friday': '11:0-22:30', 'Saturday': '12:0-22:30'}",1,28.141219,-82.461505,House of China,33549,48,4.5,FL
4534,649 Clements Bridge Rd,Na1SLUt0rQ0X72JH_2LVJA,"Restaurants, Chinese",Barrington,"{'Monday': '11:0-22:0', 'Wednesday': '11:0-22:0', 'Thursday': '11:0-22:0', 'Friday': '11:0-22:0', 'Saturday': '11:0-22:0', 'Sunday': '11:0-22:0'}",1,39.8651996,-75.0552625,No 1 Chinese Food,8007,13,4,NJ
4537,7141 Ogontz Ave,rz_an69uzlVtRzkRSMqrsw,"Chinese, Restaurants",Philadelphia,,1,40.0631649,-75.1519159,China House,19138,14,2.5,PA
4542,"9745 Fall Creek Rd, Ste 600",BAycbMpT0Irqcz8juBbSHg,"Restaurants, Seafood, Chinese, Cajun/Creole, Chicken Wings",Indianapolis,"{'Monday': '11:30-21:30', 'Wednesday': '11:30-21:30', 'Thursday': '11:30-21:30', 'Friday': '11:30-22:0', 'Saturday': '11:30-22:0', 'Sunday': '11:30-21:30'}",0,39.8968775,-85.9961609,General Tso's House,46256,38,3,IN
4553,125 Sansom Walkway,IAyHcNx5IHoLf3V4dlgFCw,"Restaurants, Food, Specialty Food, Chinese",Philadelphia,"{'Monday': '11:0-22:0', 'Tuesday': '11:0-22:0', 'Wednesday': '11:0-22:0', 'Thursday': '11:0-22:0', 'Friday': '11:0-23:0', 'Saturday': '11:0-23:0', 'Sunday': '12:0-22:0'}",0,39.94744968,-75.14393423,Pagoda Noodle Cafe,19106,100,3,PA
4554,548 Jackson Ave,nJsNoDkZGLoHt6ioW4xUug,"Chinese, Cajun/Creole, Restaurants, Seafood",New Orleans,"{'Monday': '10:0-20:0', 'Tuesday': '9:0-20:0', 'Wednesday': '10:0-20:0', 'Thursday': '10:0-20:0', 'Friday': '10:0-20:0', 'Saturday': '10:0-20:0', 'Sunday': '12:0-20:0'}",1,29.92538413,-90.07342356,T & T Seafood,70130,18,4,LA
4562,2909 Concord Pike,W6S482dRQ_9nCcLjfv8VNg,"Indian, Chinese, Restaurants",Wilmington,"{'Monday': '16:30-22:0', 'Tuesday': '16:30-22:0', 'Wednesday': '16:30-22:0', 'Thursday': '16:30-22:0', 'Friday': '16:30-22:0', 'Saturday': '16:30-22:0', 'Sunday': '11:30-22:0'}",1,39.798925,-75.5474,Bawarchi Indian Restaurant,19803,101,3.5,DE
4565,8950 Manchester Blvd,GgkQtx8S_UvqO9vRJNqANA,"Chinese, Restaurants",Brentwood,"{'Monday': '17:0-21:0', 'Tuesday': '11:0-21:0', 'Wednesday': '11:0-21:0', 'Thursday': '11:0-21:0', 'Friday': '11:0-21:0', 'Saturday': '11:0-21:0', 'Sunday': '11:0-21:0'}",0,38.612573,-90.3522678,Famous Szechuan Pavilion,63144,22,4,MO
4576,9220 Ashton Rd,mDplRQe0GajH76EzHJhucQ,"Chinese, Restaurants",Philadelphia,"{'Monday': '10:30-22:30', 'Tuesday': '10:30-22:30', 'Wednesday': '10:30-22:30', 'Thursday': '10:30-22:30', 'Friday': '10:30-23:30', 'Saturday': '10:30-23:30', 'Sunday': '12:0-22:30'}",1,40.06434951,-75.02112866,New Lee's Chinese Restaurant,19114,12,3,PA
4612,2814 Audubon Village Dr,IiatvDg0R1qwPtKPmSOdlQ,"Restaurants, Chinese",Norristown,"{'Monday': '11:0-22:0', 'Tuesday': '11:0-22:0', 'Wednesday': '11:0-22:0', 'Thursday': '11:0-22:0', 'Friday': '11:0-23:0', 'Saturday': '11:0-23:0', 'Sunday': '12:0-21:30'}",1,40.127396,-75.433888,Panda Pavilion of Audubon,19403,29,4,PA
4618,629 Woodbury Glassboro Rd,Kr1Ln95o-wZR9CYlLf2IOQ,"Chinese, Sushi Bars, Szechuan, Restaurants",Sewell,"{'Monday': '11:0-22:0', 'Tuesday': '11:0-22:0', 'Wednesday': '11:0-22:0', 'Thursday': '11:0-22:0', 'Friday': '11:0-23:0', 'Saturday': '11:0-23:0', 'Sunday': '12:0-22:0'}",1,39.761504,-75.130722,Szechuan Asian Cuisine,8080,8,3.5,NJ
4623,200-9700 105 Ave NW,C-m2goUXTiEVrQBpXsiTLA,"Dim Sum, Restaurants, Chinese",Edmonton,"{'Monday': '17:0-22:0', 'Tuesday': '17:0-22:0', 'Wednesday': '17:0-22:0', 'Thursday': '17:0-22:0', 'Friday': '17:0-22:0', 'Saturday': '17:0-22:0', 'Sunday': '17:0-22:0'}",1,53.5491597,-113.4886588,Dynasty Century Palace,T5H 4J1,36,3,AB
4682,4251 Walnut St,zBOy9arp97nuwKuTal5Mkg,"Chinese, Asian Fusion, Restaurants",Philadelphia,"{'Monday': '11:0-21:0', 'Tuesday': '11:0-21:0', 'Thursday': '11:0-21:0', 'Friday': '11:0-21:0', 'Saturday': '11:0-21:0', 'Sunday': '12:0-21:0'}",1,39.9551025,-75.208546,New Number One Chinese Restaurant,19104,40,2.5,PA
4706,5527 S 78th St,E34saIsYxyuKSJhWwmlb0Q,"Restaurants, Chinese, Seafood",Tampa,"{'Monday': '11:0-22:0', 'Tuesday': '11:0-22:0', 'Wednesday': '11:0-22:0', 'Thursday': '11:0-22:0', 'Friday': '11:0-23:0', 'Saturday': '11:0-23:0', 'Sunday': '12:0-22:0'}",1,27.8983084,-82.3698957,New Far East Chinese Rest,33619,26,4,FL
4719,1800 E Fort Lowell Rd,p3XlbP2aZa-NBRqJ4p3KLw,"Restaurants, Seafood, Chinese",Tucson,"{'Monday': '17:0-0:0', 'Tuesday': '17:0-0:0', 'Wednesday': '17:0-0:0', 'Thursday': '17:0-0:0', 'Friday': '17:0-0:0', 'Saturday': '17:0-0:0', 'Sunday': '17:0-0:0'}",0,32.2641365,-110.9449355,Seafood Time,85719,27,4,AZ
4730,5940-104 Street NW,xNXQkCkiUzswX5rd7DM-Dg,"Food, Cafes, Desserts, Restaurants, Shaved Snow, Chinese, Bubble Tea, Coffee & Tea",Edmonton,"{'Monday': '13:0-22:0', 'Wednesday': '13:0-22:0', 'Thursday': '13:0-22:0', 'Friday': '13:0-23:0', 'Saturday': '13:0-23:0', 'Sunday': '13:0-22:0'}",0,53.4969158,-113.4981701,Yumioca,T6H 2K3,15,3,AB
4732,12333 Academy Rd,49wcB-ofwY20ggk7Kd4rfw,"Restaurants, Chinese",Philadelphia,,1,40.095702,-74.9750493,Hong Kong Chinese Restaurant,19154,14,3,PA
4742,1010 Cherry St,7e4Z9_qGA0Vjb8xlFC61PA,"Ethnic Food, Local Flavor, Hotels & Travel, Cooking Classes, Chinese, Restaurants, Arts & Crafts, Tours, Arts & Entertainment, Food, Specialty Food, Shopping",Philadelphia,,1,39.9543466,-75.156613,Chef Joseph Poon,19107,22,3,PA
4774,3447 Germantown Ave,e5JRwLlsLUgt-q2WBnGkqA,"Restaurants, Chinese",Philadelphia,"{'Monday': '11:0-2:30', 'Tuesday': '11:0-2:30', 'Wednesday': '11:0-2:30', 'Thursday': '11:0-2:30', 'Friday': '11:0-3:0', 'Saturday': '11:0-3:0', 'Sunday': '12:0-2:0'}",1,40.0057676,-75.1494953,Golden China Wok Restaurant,19140,9,4.5,PA
4790,9969 Bustleton Ave,6g3pHoyXeMXFC7WD0rbJMA,"Chinese, Restaurants",Philadelphia,,1,40.1013209,-75.0287078,Happy Panda,19115,14,3,PA
4813,750 S. Rancho Sahuarita Blvd,O7d0FWUZ6cCFtQe61fzDzQ,"Fast Food, Chinese, Restaurants",Sahuarita,"{'Monday': '9:30-22:0', 'Tuesday': '9:30-22:0', 'Wednesday': '9:30-22:0', 'Thursday': '9:30-22:0', 'Friday': '9:30-22:30', 'Saturday': '9:30-22:30', 'Sunday': '10:0-21:30'}",1,31.9587045,-110.9822936,Panda Express,85629,45,2.5,AZ
4824,5335 E Southport Rd,BwikPP1tXYgJCvthSiPHWA,"Chinese, Restaurants",Indianapolis,"{'Monday': '11:0-22:0', 'Tuesday': '11:0-22:0', 'Wednesday': '11:0-22:0', 'Thursday': '11:0-22:0', 'Friday': '11:0-23:0', 'Saturday': '11:0-23:0'}",1,39.6654875,-86.0765986,Mr Wok,46237,28,3,IN
4829,3153 4th St N,UX7mhQ7zubpAlboAcP0FCQ,"Chinese, Seafood, Restaurants, Soup",Saint Petersburg,"{'Tuesday': '11:0-21:30', 'Wednesday': '11:0-21:30', 'Thursday': '11:0-21:30', 'Friday': '10:0-22:30', 'Saturday': '11:0-22:30', 'Sunday': '12:0-21:30'}",1,27.8009309,-82.6377181,Great Wall,33704,39,2.5,FL
4848,607 14th Ave N,pJv2Xu4yfFeUBiAGY95Feg,"Restaurants, Chinese, Food, Food Delivery Services",Nashville,"{'Monday': '11:0-2:0', 'Tuesday': '11:0-2:0', 'Wednesday': '18:0-2:0', 'Thursday': '18:0-2:0', 'Friday': '18:0-2:0', 'Saturday': '18:0-2:0', 'Sunday': '18:0-2:0'}",1,36.163492,-86.796787,Wow Bao,37203,16,1.5,TN
4884,1004 Race St,Fc_8eLlcq5yy4DzrEeqEaQ,"Seafood, Chinese, Nightlife, Restaurants, Karaoke",Philadelphia,,1,39.9551567,-75.1562026,Ken's Seafood Restaurant,19107,95,3,PA
4891,3226 S Grand Blvd,5ruJkVZeGooUlKf4M-O6gg,"Restaurants, Chinese",St Louis,"{'Monday': '10:30-21:30', 'Tuesday': '10:30-21:30', 'Wednesday': '10:30-21:30', 'Thursday': '10:30-21:30', 'Friday': '10:30-22:0', 'Saturday': '10:30-22:0', 'Sunday': '10:30-21:30'}",0,38.5983885,-90.2426749,New St Louis Wok,63118,61,2,MO
4935,216 N 33rd St,REt83ozDeIl6fCYZuAjNrA,"Chinese, Food Stands, Food, Food Trucks, Restaurants",Philadelphia,,1,39.96009,-75.189482,Tran's Chinese Food Cart,19104,19,4,PA
4966,2475 S Harrison Rd,LDkD5R5N7CG9yCD0YSLMZA,"Chinese, Restaurants",Tucson,"{'Monday': '11:0-20:30', 'Tuesday': '11:0-20:30', 'Wednesday': '11:0-20:30', 'Thursday': '11:0-20:30', 'Friday': '11:0-21:0', 'Saturday': '11:0-21:0', 'Sunday': '12:0-20:30'}",0,32.19308376,-110.7892192,Mae's Chinese Restaurant,85748,66,4,AZ
4973,131 S State Rd,jZy7m53Eud2cGOAPSum4fg,"Restaurants, Chinese",Springfield,"{'Monday': '11:30-22:0', 'Tuesday': '11:30-22:0', 'Wednesday': '11:30-22:0', 'Thursday': '11:30-22:0', 'Friday': '11:30-22:0', 'Saturday': '11:30-22:0', 'Sunday': '11:30-22:0'}",0,39.9380704,-75.3488889,Dragon Garden,19064,22,3.5,PA
5006,2014 Old Arch Rd,F4rYY-n9kWr2sMdbWkrsJQ,"Chinese, Restaurants",Norristown,,0,40.1300078,-75.3174099,Number One Chinese Restaurant,19401,6,3.5,PA
5017,1006 Race St,D4DZztR7vkbiED6txGUYFg,"Nightlife, Karaoke, Food, Szechuan, Chinese, Restaurants",Philadelphia,"{'Monday': '17:0-3:0', 'Wednesday': '17:0-3:0', 'Thursday': '17:0-3:0', 'Friday': '17:0-4:0', 'Saturday': '17:0-4:0', 'Sunday': '17:0-3:0'}",0,39.9553515,-75.1562283,Red Kings 2 Restaurant,19107,68,3.5,PA
5018,311 E Lincoln Hwy,GXMXaiQYLOiIM8XUq_-luQ,"Restaurants, Chinese",Exton,"{'Tuesday': '11:0-22:0', 'Wednesday': '11:0-22:0', 'Thursday': '11:0-22:0', 'Friday': '11:0-22:0', 'Saturday': '11:0-22:0'}",1,40.029893,-75.621268,Hot Wok,19341,30,3.5,PA
5026,"7801 New Falls Rd, Ste B",XyR_5dGY1-SqPUQ48_6R0w,"Chinese, Restaurants",Levittown,,1,40.1613074,-74.8475629,Hing Wah Restaurant,19055,13,3,PA
5041,"300 S Lenola Rd, Ste 11",dUiIxa1zXZEigTbtS0WWeA,"Chinese, Restaurants",Maple Shade,"{'Monday': '0:0-0:0', 'Tuesday': '11:0-21:0', 'Wednesday': '11:0-21:0', 'Thursday': '11:0-21:0', 'Friday': '11:0-21:30', 'Saturday': '11:0-21:30', 'Sunday': '12:0-21:0'}",1,39.9478336,-74.9716579,Great Taste Chinese Food,8052,22,3.5,NJ
5094,397 Plainfield Commons Dr,4p7rKXU-EO-WQ3Dxj0b9Aw,"Restaurants, Chinese, Buffets",Plainfield,,1,39.715709,-86.351515,Peking China Buffet,46168,56,2,IN
5106,2022 Nottingham Way,A9rVxmIBtHZRvNhbBaGAWg,"Restaurants, Chinese, Szechuan",Hamilton,"{'Monday': '11:0-21:30', 'Tuesday': '11:0-21:30', 'Wednesday': '11:0-21:30', 'Thursday': '11:0-21:30', 'Friday': '11:0-21:30', 'Saturday': '11:0-22:0', 'Sunday': '11:0-22:0'}",1,40.2333728,-74.7086953,Szechuan House,8619,213,4,NJ
5115,317 Woodvale Road W,X_P7ZO_ktlrL-5a9AOr_SQ,"Restaurants, Chinese",Edmonton,"{'Monday': '16:0-23:0', 'Tuesday': '16:0-23:0', 'Wednesday': '16:0-23:0', 'Thursday': '16:0-23:0', 'Friday': '16:0-23:0', 'Saturday': '16:0-23:0', 'Sunday': '16:0-22:0'}",1,53.4680569,-113.4312494,Lee Garden Cuisine,T6L,6,2.5,AB
5128,5532 E Fall Creek Pkwy N Dr,vhPDpXoai4T8SJNvDxSd0w,"Chinese, Restaurants",Indianapolis,,0,39.85409558,-86.0851578,Happy Garden Chinese Restaurant,46226,6,4,IN
5140,3739 Lancaster Ave,#NAME?,"Chinese, Restaurants",Philadelphia,"{'Monday': '11:0-23:0', 'Tuesday': '11:0-23:0', 'Wednesday': '11:0-23:0', 'Thursday': '11:0-23:0', 'Friday': '11:0-0:0', 'Saturday': '11:0-0:0', 'Sunday': '12:0-23:0'}",1,39.9602344,-75.1966365,Spring Chinese Restaurant,19104,58,3.5,PA
5161,260 N Pottstown Pike,lTlii3QHEVvsagPGsCtu9w,"Restaurants, Food, Chinese, Taiwanese",Exton,"{'Monday': '13:0-20:0', 'Tuesday': '13:0-20:0', 'Wednesday': '13:0-20:0', 'Thursday': '13:0-20:0', 'Friday': '13:0-20:0', 'Saturday': '13:0-20:0', 'Sunday': '13:0-20:0'}",1,40.03434898,-75.63382106,Han Dynasty,19341,301,3.5,PA
5165,13204 Market Square Dr,AQkR8gRIxKypOFgF1kxbtA,"Restaurants, Fast Food, Chinese",Fishers,"{'Monday': '11:0-21:0', 'Tuesday': '11:0-21:0', 'Wednesday': '11:0-21:0', 'Thursday': '11:0-21:0', 'Friday': '11:0-21:0', 'Saturday': '11:0-21:0'}",0,39.9798034,-86.0023115,Shanghai Express,46038,5,2,IN
5171,2198 NE Coachman Rd,lsgslT1Ho5FsFLSeCJW3fw,"Restaurants, Chinese",Clearwater,"{'Monday': '11:0-21:30', 'Tuesday': '11:0-21:30', 'Wednesday': '11:0-21:30', 'Thursday': '11:0-21:30', 'Friday': '11:0-22:0', 'Saturday': '11:0-22:0', 'Sunday': '12:0-21:0'}",1,27.9724802,-82.74669,Hong Kong City,33765,27,3.5,FL
5217,1400 Parkway Ave,1lp5fBpPwURobaM9pC5-3Q,"Event Planning & Services, Restaurants, Chinese, Personal Chefs",Ewing,"{'Monday': '10:30-22:0', 'Tuesday': '10:30-22:0', 'Wednesday': '10:30-22:0', 'Thursday': '10:30-22:0', 'Friday': '10:30-22:30', 'Saturday': '10:30-22:30', 'Sunday': '11:30-22:0'}",1,40.26716895,-74.80677025,Royal Chef,8628,42,3.5,NJ
5239,1086 S Virginia St,6ZtfPUPOfYdFXg-2ndhYjg,"Chinese, Restaurants, Soup, Asian Fusion",Reno,"{'Monday': '11:0-21:0', 'Tuesday': '11:0-21:0', 'Wednesday': '11:0-21:0', 'Thursday': '11:0-21:0', 'Friday': '11:0-21:0', 'Saturday': '11:0-21:0', 'Sunday': '11:0-21:0'}",0,39.51336469,-119.8065044,China East Restaurant,89502,143,3.5,NV
5283,1300 Magazine St,PC62l488ujL8i75jrBiOlg,"Desserts, Food, Noodles, Chicken Shop, Chinese, Restaurants",New Orleans,"{'Monday': '17:30-22:0', 'Wednesday': '17:30-22:0', 'Thursday': '17:30-22:0', 'Friday': '17:30-22:0', 'Saturday': '17:30-22:0', 'Sunday': '17:30-22:0'}",1,29.938219,-90.071297,Blue Giant,70130,182,4,LA
5286,419 S Broadway,a7mnK1bPrHLUOYh1D95Jhw,"Chinese, Restaurants",Gloucester City,"{'Monday': '11:0-22:0', 'Tuesday': '11:0-22:0', 'Wednesday': '11:0-22:0', 'Thursday': '11:0-22:0', 'Friday': '11:0-22:0', 'Saturday': '11:0-22:0', 'Sunday': '15:15-22:0'}",1,39.8885693,-75.1212091,Hunan Garden,8030,8,4.5,NJ
5289,3440 99 Street NW,LY-L8C-9w__NQqCLHDQARg,"Restaurants, Chinese, Food",Edmonton,"{'Monday': '0:0-0:0', 'Wednesday': '12:0-19:0', 'Thursday': '12:0-19:0', 'Friday': '12:0-19:0', 'Saturday': '12:0-19:0', 'Sunday': '12:0-19:0'}",1,53.4686084,-113.4879089,Noodle Feast,T6E 5X5,72,4.5,AB
5293,7321 E Broadway Blvd,mE16tq2q9kIAeI1wnPkKXQ,"Chinese, Restaurants",Tucson,"{'Wednesday': '16:0-20:0', 'Thursday': '16:0-20:0', 'Friday': '16:0-20:0', 'Saturday': '16:0-20:0', 'Sunday': '16:0-20:0'}",1,32.2214322,-110.8359902,Ba-Dar,85710,255,4,AZ
5337,900-7000 Emerald Drive,pIcBWVREJaIhAo90YNlPPA,"Chinese, Fast Food, Restaurants",Sherwood Park,"{'Monday': '10:30-21:0', 'Tuesday': '10:30-21:0', 'Wednesday': '10:30-21:0', 'Thursday': '10:30-21:0', 'Friday': '10:30-21:0', 'Saturday': '10:30-21:0'}",1,53.56739703,-113.2804789,Panda Express,T8H 0P5,14,3.5,AB
5377,3406 S Jefferson Ave,V2YWzOIm71s5Zom9JwqXZg,"Restaurants, Chinese",Saint Louis,"{'Monday': '11:0-22:0', 'Tuesday': '11:0-22:0', 'Wednesday': '11:0-22:0', 'Thursday': '11:0-22:0', 'Friday': '11:0-22:0', 'Saturday': '11:0-22:0'}",1,38.5929764,-90.2251773,Hong Kong Express,63118,9,3.5,MO
5385,1869 Street Rd,N0z34U1SRJc3lTL2JUGa3w,"Restaurants, Chinese",Bensalem,"{'Monday': '11:0-22:30', 'Tuesday': '11:0-22:30', 'Wednesday': '11:0-22:30', 'Thursday': '11:0-22:30', 'Friday': '11:0-23:30', 'Saturday': '11:0-23:30', 'Sunday': '12:0-22:30'}",1,40.096658,-74.943299,China Sun,19020,29,3,PA
5396,3700 S Claiborne Ave,nJxeH1phWTAXVltSb5bcbg,"Restaurants, Seafood, Soup, Chinese",New Orleans,"{'Monday': '10:30-22:30', 'Tuesday': '10:30-22:30', 'Wednesday': '10:30-22:30', 'Thursday': '10:30-22:30', 'Friday': '10:30-23:0', 'Saturday': '10:30-23:0', 'Sunday': '11:0-22:30'}",1,29.94034103,-90.09860571,China Wall,70125,60,3,LA
5413,1116 Chester Pike,CvvST7ekVd82jt67UcBy8w,"Restaurants, Chinese",Sharon Hill,"{'Monday': '10:0-22:0', 'Tuesday': '10:0-22:0', 'Wednesday': '10:0-22:0', 'Thursday': '9:0-22:0', 'Friday': '9:0-22:0', 'Saturday': '10:0-22:0', 'Sunday': '10:0-19:0'}",1,39.9099396,-75.2746798,Panda Restaurant,19079,17,2,PA
5451,"1625 Chestnut St, Ste F11",qtNCq2sRvDFHZK9V8kKYoQ,"Chinese, Restaurants",Philadelphia,"{'Monday': '9:30-18:30', 'Tuesday': '9:30-18:30', 'Wednesday': '9:30-18:30', 'Thursday': '9:30-18:30', 'Friday': '9:30-18:30', 'Saturday': '9:30-18:30', 'Sunday': '9:30-18:30'}",0,39.95235532,-75.16805669,Master Wok,19103,22,3,PA
5466,"12320 - 137 Avenue NW, Unit 103",DmuFVh2o5-eYP0I9_BpVJQ,"Fast Food, Restaurants, Chinese, Asian Fusion",Edmonton,"{'Monday': '11:0-21:0', 'Tuesday': '11:0-21:0', 'Wednesday': '11:0-21:0', 'Thursday': '11:0-21:0', 'Friday': '11:0-22:0', 'Saturday': '11:0-22:0', 'Sunday': '12:0-20:0'}",0,53.59991706,-113.5353894,Wok Box,T5L 4X6,9,2,AB
5480,8330 Earhart Blvd,znmW7djuEJjlMI0hw-utEw,"Latin American, Restaurants, Vegetarian, Diners, Seafood, Szechuan, Soup, Chicken Wings, Chinese",New Orleans,"{'Monday': '0:0-0:0', 'Wednesday': '11:0-22:30', 'Thursday': '11:0-22:30', 'Friday': '11:0-23:0', 'Saturday': '12:0-23:0', 'Sunday': '12:0-22:30'}",1,29.9624302,-90.1178508,Red Star Chinese Restaurant,70118,97,2.5,LA
5492,"200 S Emerson Ave, Ste C",LMahsH7Iy9d3MT3ez_CmCQ,"Chinese, Restaurants",Greenwood,"{'Tuesday': '10:30-21:30', 'Wednesday': '10:30-21:30', 'Thursday': '10:30-21:30', 'Friday': '10:30-22:0', 'Saturday': '10:30-22:0', 'Sunday': '10:30-21:0'}",1,39.6131742,-86.0834539,China Wok,46143,22,3.5,IN
5493,911 Race St,#NAME?,"Dim Sum, Restaurants, Chinese",Philadelphia,,0,39.955447,-75.154839,H. K. Golden Phoenix,19107,22,2.5,PA
5566,"300 White Horse Rd, Ste 4",uzfhgIbhEjr1cEUNHoQZ1Q,"Restaurants, Chinese",Voorhees,,1,39.842225,-74.9958957,Chef Chan's Restaurant,8043,70,4,NJ
5571,1820 Dickory Ave,F7X0lOg0I_1NfVDNFYPe-A,"Restaurants, Chinese",New Orleans,"{'Tuesday': '11:0-21:0', 'Wednesday': '11:0-21:0', 'Thursday': '11:0-21:0', 'Friday': '11:0-21:0', 'Saturday': '11:0-21:0', 'Sunday': '11:30-21:0'}",1,29.9656279,-90.2056741,Hong Kong Kitchen,70123,97,4.5,LA
5582,9394 Oakhurst Rd,Wf-TBQspZjvPW-ye5J4GNA,"Chinese, Restaurants",Seminole,"{'Monday': '11:0-22:0', 'Tuesday': '11:0-22:0', 'Wednesday': '11:0-22:0', 'Thursday': '11:0-22:0', 'Friday': '11:0-23:0', 'Saturday': '11:0-23:0', 'Sunday': '11:0-22:0'}",1,27.8581622,-82.8323373,China King,33776,21,3.5,FL
5611,11860 Allisonville Rd,Zf2TmreEioypBoYP5caj5A,"Restaurants, Chinese",Fishers,"{'Monday': '11:0-21:30', 'Tuesday': '11:0-21:30', 'Wednesday': '11:0-21:30', 'Thursday': '11:0-21:30', 'Friday': '11:0-21:30', 'Saturday': '12:0-21:30', 'Sunday': '11:0-21:30'}",1,39.96077355,-86.03867548,Mark Pi's Express,46038,72,4,IN
5614,"845 E University Blvd, Ste 135",tZR09XLQ2tjOgXhSoxILXA,"Asian Fusion, Fast Food, Chinese, Gluten-Free, Restaurants",Tucson,"{'Monday': '0:0-0:0', 'Tuesday': '11:0-20:0', 'Wednesday': '11:0-20:0', 'Thursday': '12:0-16:0', 'Friday': '11:0-20:0', 'Saturday': '11:0-20:0', 'Sunday': '11:0-20:0'}",1,32.23197155,-110.9585474,Pei Wei,85719,88,3,AZ
5616,6117 N Florida Ave,ZXVt7UdbQDK_bl9SoybwFw,"Restaurants, Chinese",Tampa,,1,28.0029598,-82.4591083,Fried Rice King,33604,20,3.5,FL
5620,11022 US Hwy 41 S,loAb0KBG_wnUclXqfVX9-Q,"Chinese, Restaurants",Gibsonton,"{'Tuesday': '11:30-22:0', 'Wednesday': '11:30-22:0', 'Thursday': '11:30-22:0', 'Friday': '11:30-22:0', 'Saturday': '11:30-22:0', 'Sunday': '11:30-22:0'}",1,27.84087092,-82.38070484,Taiwan Express Chinese Restaurant,33534,33,4,FL
5630,"3915 Madison Ave, Ste 1",AM_s1X2fykJN-gVREChtCw,"Restaurants, Chinese",Indianapolis,,0,39.709428,-86.1419784,Great China Buffet,46227,23,3,IN
5660,120 N State Road 267,bAAN8_3lDA0baaYQ2bbK1w,"Restaurants, Chinese",Avon,,1,39.76451958,-86.40063731,China Buffet,46123,30,2.5,IN
5685,11 Cricket Ave,J62Fs9lhPGYRJR3vawE4UQ,"Chinese, Restaurants",Ardmore,,0,40.007405,-75.290976,Auspicious Chinese Restaurant,19003,29,3,PA
5719,"116 Royal Oaks Blvd, Ste 128",0ble3dYWCsUnJ6CU0Vzr7A,"Food, Asian Fusion, Chinese, Restaurants",Franklin,"{'Monday': '11:0-21:30', 'Wednesday': '11:0-21:30', 'Thursday': '11:0-21:30', 'Friday': '11:0-21:30', 'Saturday': '11:0-21:30', 'Sunday': '12:0-21:30'}",1,35.9167761,-86.8277718,Asian Taste,37067,110,4,TN
5729,3447 Lithia Pinecrest Rd,iI9Ol4rFhhEne130nCmAHQ,"Restaurants, Chinese",Valrico,,1,27.892684,-82.241907,Golden Bowl,33594,47,3.5,FL
5747,2900 Clear Acre Ln,#NAME?,"Restaurants, Chinese",Reno,,0,39.5570341,-119.7910666,Szechuan Express Sun Valley,89512,40,2.5,NV
5762,302 N Dale Mabry Hwy,JzQsy7_G0p-UZGYFMCEHvQ,"Restaurants, Chinese",Tampa,"{'Monday': '17:0-21:45', 'Tuesday': '17:0-21:45', 'Wednesday': '17:0-21:45', 'Thursday': '17:0-21:45', 'Friday': '17:0-21:45', 'Saturday': '17:0-21:45', 'Sunday': '17:0-21:0'}",1,27.9478385,-82.5060173,Yummy House South,33609,343,3.5,FL
5786,3131 Rte 38,fIliluKRzhBtj4rLiMCiIg,"Gluten-Free, Asian Fusion, Restaurants, Cantonese, Chinese, Sushi Bars, Comfort Food",Mount Laurel,"{'Monday': '0:0-0:0', 'Tuesday': '11:30-20:0', 'Wednesday': '11:30-20:0', 'Thursday': '11:30-20:0', 'Friday': '11:30-20:0', 'Saturday': '11:30-20:0', 'Sunday': '11:30-20:0'}",1,39.9709064,-74.8800888,Tr??s Yan & Wu,8054,118,4,NJ
5789,"2914 W End Ave, Ste B",C5lUI7qJ8NnmawAFVPZg8A,"Restaurants, Chinese",Nashville,"{'Monday': '10:30-22:0', 'Tuesday': '10:30-22:0', 'Wednesday': '10:30-22:0', 'Thursday': '10:30-22:0', 'Friday': '10:30-22:0', 'Sunday': '11:30-22:0'}",1,36.1444222,-86.8139076,China Dragon,37203,103,3,TN
5840,3016 Union Ave,Ba5pfDWAO-Bx5dTOQyLh_g,"Chinese, Restaurants",Pennsauken,"{'Tuesday': '11:0-21:30', 'Wednesday': '11:0-21:30', 'Thursday': '11:0-21:30', 'Friday': '11:0-22:0', 'Saturday': '11:0-22:0', 'Sunday': '12:0-21:30'}",1,39.9626882,-75.0352288,Chen's Garden,8109,12,1,NJ
5848,15415 111 Avenue NW,oSwatEhA-zDGaYD26a5_PA,"Chinese, Asian Fusion, Restaurants, Buffets",Edmonton,"{'Monday': '11:0-22:0', 'Tuesday': '11:0-22:0', 'Wednesday': '11:0-22:0', 'Thursday': '11:0-22:0', 'Friday': '11:0-22:0', 'Saturday': '15:0-22:0', 'Sunday': '15:0-22:0'}",1,53.55873,-113.587789,Szechuan Castle,T5M 2R5,33,3.5,AB
5850,4229 Main St,lU8TnePBqMrWxo9BKAThGA,"Szechuan, Chinese, Restaurants",Philadelphia,"{'Monday': '11:0-22:0', 'Tuesday': '11:0-22:0', 'Wednesday': '11:0-22:0', 'Thursday': '11:0-22:0', 'Friday': '11:0-22:0', 'Saturday': '11:0-22:0'}",0,40.0243322,-75.2207517,Three Kingdoms,19127,12,4,PA
5868,601 Maryland Ave,gdV2mdEGR_kPA9EW6r2Qeg,"Chinese, Restaurants",Wilmington,"{'Monday': '11:0-23:0', 'Tuesday': '11:0-23:0', 'Wednesday': '11:0-23:0', 'Thursday': '11:0-23:0', 'Friday': '11:0-0:0', 'Saturday': '11:0-0:0', 'Sunday': '12:0-22:30'}",0,39.738359,-75.56521,China Inn,19805,7,2.5,DE
5894,4873 W 38th St,Ngj7uN4Sk893rcRfi_K6QA,"Restaurants, Chinese",Indianapolis,"{'Monday': '16:30-21:30', 'Tuesday': '16:30-21:30', 'Wednesday': '16:30-21:30', 'Thursday': '16:30-21:30', 'Friday': '16:30-22:30', 'Saturday': '16:30-22:30', 'Sunday': '11:0-21:30'}",0,39.8239354,-86.2421025,Iron Sheet Royal Grill,46254,16,3,IN
5915,359 Pennington Ave,_30PYsnQuGax9SbSnVL0-A,"Restaurants, Chinese, Preschools, Education, Elementary Schools, Asian Fusion",Trenton,"{'Monday': '11:0-22:0', 'Tuesday': '11:0-22:0', 'Wednesday': '11:0-22:0', 'Thursday': '11:0-22:0', 'Friday': '11:0-22:30', 'Saturday': '11:0-22:30'}",1,40.2318248,-74.7700059,Mr China,8618,5,4,NJ
5958,707 Chestnut St,jziliEq8Zum-EynD5v-Hvg,"Peruvian, Chinese, Restaurants, Asian Fusion, Latin American",Philadelphia,,0,39.949786,-75.152623,Chifa,19106,444,4,PA
5961,3568 Edgmont Ave,5dHjoqaoVAhpVuQeMujMNw,"Chinese, Soup, Restaurants, Noodles",Brookhaven,"{'Monday': '11:0-21:30', 'Wednesday': '11:0-21:30', 'Thursday': '11:0-21:30', 'Friday': '11:0-22:30', 'Saturday': '11:0-22:30', 'Sunday': '12:0-21:30'}",1,39.8701906,-75.3855074,Wing Hing Chinese Restaurant,19015,39,2.5,PA
6020,10879 23 Avenue NW,ddibKJk-XuUhom1uI754WA,"Restaurants, Chinese",Edmonton,,1,53.4533298,-113.5085046,Panda Hut Express,T6J 7B5,46,3,AB
6025,7708 Maple Ave,LuD8Ci-eTKyYnaLv9frAag,"Chinese, Restaurants",Merchantville,"{'Monday': '11:0-22:30', 'Tuesday': '11:0-22:30', 'Wednesday': '11:0-22:30', 'Thursday': '11:0-22:30', 'Friday': '11:0-23:0', 'Saturday': '11:0-23:0', 'Sunday': '12:0-22:0'}",1,39.9522299,-75.0291132,Fortune Cookie,8109,12,3.5,NJ
6026,"101 Creekside Crossing, Ste 1800",UZCe8bfQdU38wXzURA0RfA,"Gluten-Free, Restaurants, Asian Fusion, Chinese, Fast Food",Brentwood,"{'Monday': '0:0-0:0', 'Tuesday': '11:0-20:0', 'Wednesday': '11:0-20:0', 'Thursday': '11:0-16:0', 'Friday': '11:0-20:0', 'Saturday': '11:0-20:0', 'Sunday': '11:0-20:0'}",1,36.03685501,-86.79900096,Pei Wei,37027,115,2.5,TN
6041,3524 State St,eukRpR47MDH4XXfU_Dul9Q,"Restaurants, Chinese",Santa Barbara,"{'Monday': '11:0-21:0', 'Tuesday': '11:0-21:0', 'Wednesday': '11:0-21:0', 'Thursday': '11:0-21:0', 'Friday': '11:0-21:0', 'Saturday': '11:0-21:0', 'Sunday': '11:0-21:0'}",1,34.440642,-119.7392725,Madam Lu,93105,136,3.5,CA
6082,1030 58th St N,KJJm3Qwmqd5r37hIYQ0MOw,"Buffets, Chinese, Restaurants",St. Petersburg,,0,27.7820333,-82.7122765,Good Fortune Buffet,33710,21,2,FL
6102,335 W Main St,fkS2ADZEEuIwyhWHaA7Nag,"Chinese, Food, Restaurants",Gallatin,"{'Monday': '10:30-21:30', 'Tuesday': '10:30-21:30', 'Wednesday': '10:30-21:30', 'Thursday': '10:30-21:30', 'Friday': '10:30-22:0', 'Saturday': '10:30-22:0', 'Sunday': '12:0-21:30'}",1,36.38558024,-86.4529499,China Wok,37066,14,3,TN
6122,5814 Natural Bridge Ave,YgO7Rsia2ggQQ8uOGvKWTQ,"Chinese, Restaurants",Saint Louis,,1,38.6860647,-90.271853,Yet Bun Chop Suey,63120,5,4,MO
6145,2620 Rhawn St,mbWj0U7dIaX103cSQC4WiQ,"Restaurants, Chinese",Philadelphia,,1,40.0558716,-75.0456795,China Royal,19152,17,2.5,PA
6151,2838 Vista Blvd,MW9tmMmtO0fcncSEFvbCgw,"Chinese, Restaurants",Sparks,"{'Monday': '11:0-21:30', 'Tuesday': '11:0-21:30', 'Wednesday': '11:0-21:30', 'Thursday': '11:0-21:30', 'Friday': '11:0-22:0', 'Saturday': '11:0-22:0', 'Sunday': '11:30-21:30'}",0,39.5573036,-119.7050022,China Wok,89434,38,2.5,NV
6157,730 S Olden Ave,iyutkBQLc8iyAYqaTmse_Q,"Restaurants, Seafood, Asian Fusion, Chinese",Trenton,"{'Monday': '11:0-22:30', 'Tuesday': '11:0-22:30', 'Wednesday': '11:0-22:30', 'Thursday': '11:0-22:30', 'Friday': '11:0-23:30', 'Saturday': '11:0-23:30', 'Sunday': '11:0-22:30'}",1,40.21690097,-74.72970597,China Express,8629,6,4,NJ
6162,2646 Egypt Rd,tfi7XsCSptZLaa3y-rbuvg,"Chinese, Restaurants",Norristown,"{'Monday': '10:30-22:30', 'Tuesday': '10:30-22:30', 'Wednesday': '10:30-22:30', 'Thursday': '10:30-22:30', 'Friday': '10:30-23:0', 'Saturday': '10:30-23:30', 'Sunday': '11:0-22:0'}",1,40.12962802,-75.40471208,China Wok,19403,187,4.5,PA
6191,"1017 Arch St, Fl 1",NEZOlUKoQWUotatzRp-r5A,"Mongolian, Restaurants, Chinese, Hot Pot",Philadelphia,"{'Monday': '0:0-0:0', 'Wednesday': '12:0-21:0', 'Thursday': '12:0-21:0', 'Friday': '12:0-21:0', 'Saturday': '12:0-21:0', 'Sunday': '12:0-21:0'}",1,39.9539683,-75.1570234,Happy Lamb Hot Pot,19107,169,4,PA
6255,107 N Newstead Ave,kBN7qnzhO05Tfqjh76AnCg,"Chinese, American (Traditional), Restaurants",Saint Louis,"{'Monday': '7:30-18:0', 'Tuesday': '7:30-18:0', 'Wednesday': '7:30-18:0', 'Thursday': '7:30-18:0', 'Friday': '7:30-18:0', 'Saturday': '8:0-14:0', 'Sunday': '8:0-14:0'}",0,38.6406915,-90.254769,Ellsworth Cafe,63108,16,3.5,MO
6259,296 White Horse Pike,10NR8u93XVxTm8XMWUimEg,"Chinese, Restaurants",Atco,"{'Monday': '11:0-22:0', 'Tuesday': '11:0-22:0', 'Wednesday': '11:0-22:0', 'Thursday': '11:0-22:0', 'Friday': '11:0-23:0', 'Saturday': '11:0-23:0', 'Sunday': '12:0-22:0'}",1,39.7719113,-74.9001874,China Max,8004,17,4,NJ
6271,2304 E County Line Rd,UBninoH1mvs7KpR_ZRFtXg,"Cantonese, Chinese, Restaurants",Indianapolis,"{'Monday': '0:0-0:0', 'Wednesday': '10:30-21:30', 'Thursday': '10:30-21:30', 'Friday': '10:30-21:30', 'Saturday': '10:30-22:0', 'Sunday': '10:30-22:0'}",1,39.6360982,-86.121643,China Dragon,46227,47,4,IN
6275,"330 Mayfield Dr, Ste A10",5lA94V_1Ix5cgr6AzotaWg,"Chinese, Asian Fusion, Restaurants, Szechuan",Franklin,"{'Monday': '0:0-0:0', 'Tuesday': '10:30-21:45', 'Wednesday': '10:30-21:45', 'Thursday': '10:30-21:45', 'Friday': '10:30-21:45', 'Saturday': '11:0-21:45', 'Sunday': '16:30-21:45'}",1,35.954446,-86.8021158,China Panda,37067,40,2.5,TN
6307,101 E Moreland Rd,Zbi_1e0KfDJNDGubcoBqkg,"Restaurants, Chinese, Asian Fusion",Willow Grove,"{'Tuesday': '11:0-22:0', 'Wednesday': '11:0-22:0', 'Thursday': '11:0-22:0', 'Friday': '11:0-23:0', 'Saturday': '11:0-23:0', 'Sunday': '12:0-22:0'}",0,40.139691,-75.1141811,Mei's Chinese Restaurant,19090,19,3.5,PA
6341,1251 East Brandon Blvd,q7iYCBUaBBDSlk3-1c6f7A,"Chinese, Fast Food, Restaurants",Brandon,"{'Monday': '10:30-21:30', 'Tuesday': '10:30-21:30', 'Wednesday': '10:30-21:30', 'Thursday': '10:30-21:30', 'Friday': '10:30-22:0', 'Saturday': '10:30-22:0', 'Sunday': '10:30-21:30'}",1,27.93714789,-82.26380449,Panda Express,33511,24,2.5,FL
6343,4040 City Ave Bldg 2 Space 2,Oj-XIt4Xj6NSsHzlSt-PsA,"Restaurants, Gluten-Free, Asian Fusion, Chinese, Fast Food, Diners",Philadelphia,"{'Monday': '11:0-21:0', 'Tuesday': '11:0-21:0', 'Wednesday': '11:0-21:0', 'Thursday': '11:0-21:0', 'Friday': '11:0-22:0', 'Saturday': '11:0-22:0', 'Sunday': '11:0-21:0'}",0,40.00727922,-75.21270409,Pei Wei,19131,144,2.5,PA
6385,2116 Green Hills Village Dr,7tE9fLBPwXvoxkykGJPbEw,"Restaurants, Comfort Food, Chinese, American (New), Mediterranean, Pasta Shops, Salad, Specialty Food, Food, Noodles, Italian, Asian Fusion",Nashville,"{'Monday': '0:0-0:0', 'Tuesday': '11:0-21:0', 'Wednesday': '11:0-21:0', 'Thursday': '11:0-21:0', 'Friday': '11:0-21:0', 'Saturday': '11:0-21:0', 'Sunday': '11:0-21:0'}",1,36.1085807,-86.81322671,Noodles & Company,37215,143,3,TN
6398,"4200 George J. Bean Parkway, Terminal E",1PMlvTeQr3BpTm6GqOEckQ,"Pan Asian, Chinese, Restaurants, Fast Food",Tampa,"{'Monday': '5:30-21:30', 'Tuesday': '5:30-21:30', 'Wednesday': '5:30-21:30', 'Thursday': '5:30-21:30', 'Friday': '5:30-21:30', 'Saturday': '5:30-21:30', 'Sunday': '5:30-21:30'}",1,27.976146,-82.532111,Panda Express,33607,7,2.5,FL
6447,8923 S Meridian St,pb1nY1D4SftVWCBM1cADCA,"Restaurants, Chinese",Indianapolis,,1,39.6361025,-86.157611,West Place Chinese Restaurant,46227,20,3.5,IN
6451,6057 Castor Ave,wUiJDkB_YUZEgTQshpUZZg,"Chinese, Restaurants",Philadelphia,,1,40.0354613,-75.0808778,Xin Xing House,19149,5,4,PA
6481,4790 E Grant Rd,EILOpH5vO8vO2zGHXr11hA,"Restaurants, Chinese",Tucson,,0,32.2505592,-110.8906809,China Star of Tucson,85712,19,2.5,AZ
6514,939 New Rodgers Rd,cqJwH4GoPxYKW7wVjBbC9g,"Restaurants, Chinese",Levittown,"{'Monday': '11:0-23:0', 'Tuesday': '11:0-23:0', 'Wednesday': '11:0-23:0', 'Thursday': '11:0-23:0', 'Friday': '11:0-23:30', 'Saturday': '11:0-23:30', 'Sunday': '11:0-23:0'}",1,40.15618997,-74.89494307,Super Wok,19056,27,3.5,PA
6515,4100 George J Bean Pkwy,x09a9Qf1szbwBbamf4SUZA,"Asian Fusion, Restaurants, Chinese, Gluten-Free",Tampa,,1,27.97976538,-82.53394191,PF Chang's,33607,100,3.5,FL
6551,1626 S Columbus Blvd,uSW_RGoNOqOmtR1lchGxUg,"Chinese, Restaurants",Philadelphia,"{'Monday': '11:0-22:0', 'Tuesday': '11:0-22:0', 'Wednesday': '11:0-22:0', 'Thursday': '11:0-22:0', 'Friday': '11:0-23:0', 'Saturday': '11:0-23:0', 'Sunday': '12:0-22:0'}",1,39.926769,-75.14621,Chopstick House,19148,10,4,PA
6556,565 Mellville,giEJm-5fmEyf_s3_9tgTKg,"Restaurants, Chinese",Saint Louis,"{'Monday': '11:0-21:0', 'Tuesday': '11:0-21:0', 'Wednesday': '11:0-21:0', 'Thursday': '11:0-21:0', 'Friday': '11:0-21:0', 'Saturday': '11:0-21:0'}",0,38.6553318,-90.3056024,Wong's Wok,63130,72,4,MO
6612,781 W Sproul Rd,pWUrN0NCZ2y_d9rzjCmu9Q,"Restaurants, Chinese, Seafood, Salad",Springfield,"{'Monday': '11:0-21:30', 'Tuesday': '11:0-21:30', 'Wednesday': '11:0-21:30', 'Thursday': '11:0-21:30', 'Friday': '11:0-22:30', 'Saturday': '11:0-22:30', 'Sunday': '12:0-21:30'}",1,39.93780114,-75.34986031,Crack Crab - Springfield,19064,13,3.5,PA
6613,905 E Boot Rd,brqnz3tOKwc8nPnGhR_NKA,"Restaurants, Chinese",West Chester,"{'Monday': '11:0-22:30', 'Tuesday': '11:0-22:30', 'Wednesday': '11:0-22:30', 'Thursday': '11:0-22:30', 'Friday': '11:0-23:0', 'Saturday': '11:0-23:0', 'Sunday': '12:0-22:0'}",1,40.0098773,-75.59434867,Hong Kong Restaurant,19380,26,4,PA
6632,300 Young Ave,LbOYghZqvVO3XKbN8J-t_A,"Restaurants, Chinese",Moorestown,,0,39.97129669,-74.91759853,Yi Pin Cuisine,8057,46,4,NJ
6635,"130 W Main St, Ste 120",tdWrPT2XT2NpPtfQQhf08w,"Asian Fusion, Chinese, Sushi Bars, Restaurants",Collegeville,"{'Monday': '11:0-22:0', 'Tuesday': '11:0-22:0', 'Wednesday': '11:0-22:0', 'Thursday': '11:0-22:0', 'Friday': '11:0-22:0', 'Saturday': '11:0-22:0', 'Sunday': '12:0-21:30'}",1,40.19401,-75.468474,Jasmine Asian House,19426,87,3,PA
6636,6601 Sugar Valley Dr,cr1BA7byDDj_fkiP7rtNjA,"Chinese, Seafood, Soup, Restaurants",Nashville,"{'Monday': '11:0-22:0', 'Tuesday': '11:0-22:0', 'Wednesday': '11:0-22:0', 'Thursday': '11:0-22:0', 'Friday': '11:0-22:30', 'Saturday': '11:0-22:30', 'Sunday': '12:0-22:0'}",1,36.015989,-86.705445,China King,37211,39,4,TN
6643,345 N Virginia St,Bqvf2tm6CXP_4tmAtneu8Q,"Specialty Food, Chinese, Food, Ethnic Food, Restaurants",Reno,,0,39.5287886,-119.8143539,Golden Fortune Restaurant,89501,5,2.5,NV
6655,"5599 Hollister Ave, Unit C",2RtyOlU9mwyVisvgOECaDA,"Food, Bubble Tea, Chinese, Restaurants, Asian Fusion, Hot Pot",Goleta,"{'Monday': '0:0-0:0', 'Tuesday': '11:30-20:30', 'Wednesday': '11:30-20:30', 'Thursday': '11:30-20:30', 'Friday': '11:30-20:30', 'Saturday': '11:30-20:30', 'Sunday': '11:30-20:30'}",1,34.4354208,-119.8203772,Uniboil,93117,209,4,CA
6657,5921 N Broad St,eGmbGdkhPjw2gniEIq-E6Q,"Chinese, Restaurants, American (Traditional), Fast Food",Philadelphia,"{'Monday': '15:0-2:0', 'Tuesday': '15:0-2:0', 'Wednesday': '15:0-2:0', 'Thursday': '15:0-2:0', 'Friday': '15:0-3:0', 'Saturday': '15:0-3:0'}",1,40.0435209,-75.1433762,Imperial Palace Chinese Restaurant,19141,12,4,PA
6680,1067 W Baltimore Pike,6L-skVVrBe03FCzu5C5TDg,"Restaurants, Chinese",Media,,0,39.917345,-75.4334422,Panda Express,19063,5,4.5,PA
6683,1437 E Vernon Rd,LD9Zw55zDpA3CD2wJfhSLQ,"Restaurants, Chinese, Cantonese, Szechuan",Philadelphia,"{'Tuesday': '11:30-23:0', 'Wednesday': '11:30-23:0', 'Thursday': '11:30-23:0', 'Friday': '11:30-0:0', 'Saturday': '11:30-0:0', 'Sunday': '12:0-22:30'}",0,40.073726,-75.16716,New Wok Chinese Restaurant,19150,6,2,PA
6693,"10824 97 Street NW, Unit 3",I6S2XzdA0vpodHk5ZoA2yg,"Chinese, Asian Fusion, Restaurants",Edmonton,"{'Monday': '11:30-22:0', 'Tuesday': '11:30-22:0', 'Wednesday': '11:30-22:0', 'Thursday': '11:30-22:0', 'Friday': '12:0-0:0', 'Saturday': '12:0-0:0', 'Sunday': '16:0-22:0'}",1,53.5539179,-113.4904704,Spirit Bistro,T5H 2M3,6,4,AB
6768,2550 N Derbigny St,mXsfheczyGsMPsRSO_DGBw,"Chinese, Restaurants",New Orleans,,1,29.9748913,-90.0488266,Chinese Inn,70117,10,3.5,LA
6815,237 S 10th St,ErJ9NtMXt-WJZV_TVZ08Ag,"Sushi Bars, Chinese, Soup, Seafood, Restaurants",Philadelphia,"{'Monday': '11:0-22:0', 'Tuesday': '11:0-22:0', 'Wednesday': '11:0-22:0', 'Thursday': '11:0-22:0', 'Friday': '11:0-23:0', 'Saturday': '11:0-23:0', 'Sunday': '12:0-22:0'}",1,39.9471663,-75.1573928,Green Garden,19107,77,3.5,PA
6816,4400 Hampton Ave,UbsrfU3sQ2FRo2jE4Z4Meg,"Chinese, Restaurants, Fast Food",Saint Louis,"{'Monday': '10:30-21:30', 'Tuesday': '10:30-21:30', 'Wednesday': '10:30-21:30', 'Thursday': '10:30-21:30', 'Friday': '10:30-22:0', 'Saturday': '10:30-22:0', 'Sunday': '10:30-21:30'}",1,38.5903692,-90.294182,Panda Express,63109,43,2,MO
6840,401 N Market St,HurD0KDmuuHVNnh1lGb_OQ,"Restaurants, Chinese, American (Traditional)",Wilmington,"{'Monday': '10:30-22:30', 'Tuesday': '10:30-22:30', 'Wednesday': '10:30-22:30', 'Thursday': '10:30-22:30', 'Friday': '10:30-23:0', 'Saturday': '10:30-23:0', 'Sunday': '11:0-22:30'}",1,39.74059165,-75.5513417,Dragon Cuisine,19801,15,3.5,DE
6871,3084 Frankford Ave,Gm4JTabNe81qEL5Lf9NcCQ,"Restaurants, Chinese",Philadelphia,"{'Monday': '11:0-23:0', 'Wednesday': '11:0-23:0', 'Thursday': '11:0-23:0', 'Friday': '11:0-23:0', 'Saturday': '11:0-23:0', 'Sunday': '12:0-23:0'}",1,39.9918037,-75.1131361,China Star,19134,6,2,PA
6880,3547 18th St,XHOU9WPIq5SYzCcBnODxEg,"Restaurants, Chinese",Metairie,"{'Monday': '11:30-20:30', 'Tuesday': '11:30-20:30', 'Wednesday': '11:30-20:30', 'Thursday': '11:30-20:30', 'Friday': '11:30-20:30', 'Saturday': '11:30-20:30'}",1,30.00892507,-90.16126694,YuYan Kitchen,70002,28,4.5,LA
6881,2330 E 53rd St,MvWBAo164qmZGu_04b08vw,"Restaurants, Chinese",Indianapolis,"{'Tuesday': '11:0-22:0', 'Wednesday': '11:0-22:0', 'Thursday': '11:0-22:0', 'Friday': '11:0-22:0', 'Saturday': '11:0-22:0', 'Sunday': '11:0-22:0'}",1,39.8495208,-86.1232064,Bamboo House,46220,74,3.5,IN
6921,3880 State Route 141,6FUtAjs_c8SIRun3LNk13Q,"Chinese, Restaurants, Fast Food",Arnold,"{'Monday': '10:30-21:0', 'Tuesday': '10:30-21:0', 'Wednesday': '10:30-21:0', 'Thursday': '10:30-21:0', 'Friday': '10:30-21:30', 'Saturday': '10:30-21:30', 'Sunday': '10:30-21:0'}",1,38.44458,-90.374796,Panda Express,63010,34,3,MO
6941,3901 Conshohocken Ave,rjjK00bgGHNOJWMgUXT-ng,"Chinese, Restaurants",Philadelphia,"{'Monday': '11:30-20:30', 'Tuesday': '11:30-20:30', 'Wednesday': '11:30-20:30', 'Thursday': '11:30-20:30', 'Friday': '11:30-20:30', 'Saturday': '11:30-20:30'}",1,40.0034,-75.2067881,Beijing Panda,19131,13,1.5,PA
6967,924 Brunswick Ave,JqE-8ze3ynslCeBxpnzusw,"Restaurants, Chinese",Trenton,,1,40.23929506,-74.74938769,Best Food in Town,8638,6,4,NJ
6972,651 Gravois Bluffs Blvd,qVrILdmMa-HT9D_VRQmwPw,"Fast Food, Chinese, Restaurants",Fenton,,1,38.5085,-90.439802,Panda Express,63026,9,2,MO
6986,67 E 4th St,1CPhIcvexZL-oj-LU04sOA,"Chinese, Restaurants",Bridgeport,"{'Monday': '10:0-21:0', 'Tuesday': '10:0-21:0', 'Wednesday': '10:0-21:0', 'Thursday': '10:0-21:0', 'Friday': '10:0-22:30', 'Saturday': '10:0-22:30', 'Sunday': '10:0-21:0'}",1,40.1046449,-75.332947,China Star,19405,18,3,PA
6989,11065 Spring Hill Dr,4D0CQDOL-mhAG-UmkBIvaA,"Chinese, Restaurants",Spring Hill,"{'Monday': '11:0-22:0', 'Tuesday': '11:0-22:0', 'Wednesday': '11:0-22:0', 'Thursday': '11:0-22:0', 'Friday': '11:0-23:0', 'Saturday': '11:0-23:0', 'Sunday': '12:0-22:0'}",1,28.4618523,-82.5414849,Taste Good,34608,33,3,FL
7052,2333 Welsh Rd,sa4-5RwEN-yUrz2An0uYGA,"Caterers, Restaurants, Food, Asian Fusion, Soup, Chinese, Event Planning & Services, Noodles",Lansdale,"{'Monday': '11:0-21:0', 'Tuesday': '12:0-21:0', 'Wednesday': '11:0-22:0', 'Thursday': '11:0-22:0', 'Friday': '11:0-22:0', 'Saturday': '11:0-22:0', 'Sunday': '11:0-21:0'}",1,40.26322363,-75.31663401,Yantze Chinese Gourmet,19446,141,4,PA
7085,138 S Easton Rd,VSBDNSp-rGItt1Sl70jnew,"Chinese, Restaurants",Glenside,"{'Monday': '11:0-22:0', 'Tuesday': '11:0-22:0', 'Wednesday': '11:0-22:0', 'Thursday': '11:0-22:0', 'Friday': '11:0-23:0', 'Saturday': '11:0-23:0', 'Sunday': '12:30-21:30'}",1,40.099658,-75.1548216,Jasmine Asian Bistro,19038,87,4,PA
7098,13619 St Albert Trail NW,YU0XzRuCz0CiX3eNaTtwQw,"Buffets, Noodles, Restaurants, Chinese",Edmonton,"{'Monday': '11:0-22:0', 'Tuesday': '11:0-22:0', 'Wednesday': '11:0-22:0', 'Thursday': '11:0-22:0', 'Friday': '11:0-23:0', 'Saturday': '11:0-23:0', 'Sunday': '11:0-22:0'}",1,53.59899853,-113.5708312,Beijing House Buffet,T5L 5E7,52,3.5,AB
7103,225 Westshore Plz,a7dnu3RVo9BHmg1Nzwfw5w,"Restaurants, Chinese",Tampa,,1,27.94689075,-82.52752202,Chinese Gourmet Express,33609,5,3.5,FL
7176,1861 Princeton Ave,0C3T3J5AWrHTkkq3K5oFwg,"Indian, Restaurants, Chinese",Lawrence Township,"{'Monday': '17:0-22:0', 'Wednesday': '17:30-22:0', 'Thursday': '17:30-22:0', 'Friday': '17:30-23:0', 'Saturday': '17:30-23:0', 'Sunday': '17:30-22:0'}",0,40.24767687,-74.74530085,Inchins Bamboo Garden,8648,17,3,NJ
7215,1007 Macdede Blvd,22uHGWZ2WkhvmZDVBGcdEQ,"Asian Fusion, Restaurants, Chinese",Collingdale,,1,39.9101686,-75.2813895,Fuji Hibachi And Chinese Cuisine,19023,12,4.5,PA
7237,"2331 66 Street North West, Suite 270",DfAc0hlFid5zaab2LKCWCw,"Chinese, Himalayan/Nepalese, Restaurants, Indian",Edmonton,"{'Monday': '11:0-22:0', 'Tuesday': '11:0-22:0', 'Wednesday': '11:0-22:0', 'Thursday': '11:0-22:0', 'Friday': '11:0-23:0', 'Saturday': '11:0-23:0', 'Sunday': '11:0-22:0'}",1,53.4558049,-113.4297839,Himalayan Village,T6L 6N2,8,4,AB
7242,4947 W Napoleon Ave,nForXf-eptIBcTtAG_daSA,"Chinese, Restaurants, Food Delivery Services, Food",Metairie,"{'Tuesday': '11:30-21:30', 'Wednesday': '11:30-21:30', 'Thursday': '11:30-21:30', 'Friday': '11:30-22:0', 'Saturday': '11:30-22:0', 'Sunday': '11:30-21:30'}",1,29.99491887,-90.19147584,Chinese Restaurant,70001,38,3,LA
7286,1400 Berlin Rd,Y9GZffGOGg5EBtErDaDHgw,"Restaurants, Chinese",Cherry Hill,"{'Monday': '10:0-22:30', 'Tuesday': '10:0-22:30', 'Wednesday': '10:0-22:30', 'Thursday': '10:0-22:30', 'Friday': '10:0-22:30', 'Saturday': '10:0-23:0', 'Sunday': '10:0-22:0'}",1,39.87926216,-75.0044444,Hunan Wok,8003,5,4,NJ
7301,4307 W Main St,W_KX5Qgpk9mZEMDJJoqfLw,"American (Traditional), Barbeque, Restaurants, Sandwiches, Chicken Wings, Chinese",Belleville,"{'Monday': '11:0-22:0', 'Tuesday': '11:0-22:0', 'Wednesday': '11:0-22:0', 'Thursday': '11:0-1:0', 'Friday': '11:0-1:0', 'Saturday': '11:0-1:0', 'Sunday': '11:0-22:0'}",1,38.5387445,-90.0206783,Geo's Wings & More,62226,34,3.5,IL
7379,2206 Market St,OmZZS72yQcPyqEDPCA3EVA,"Asian Fusion, Restaurants, Chinese",Philadelphia,"{'Monday': '11:0-22:30', 'Tuesday': '11:0-22:30', 'Wednesday': '11:0-22:30', 'Thursday': '11:0-22:30', 'Friday': '11:0-23:30', 'Saturday': '11:0-23:30', 'Sunday': '12:0-22:30'}",0,39.9538411,-75.1770532,Golden Lake,19103,51,3,PA
7382,229 S White Horse Pike,gpHpa-Q-6v1TAOPmKbmReg,"Chinese, Restaurants",Berlin,,1,39.7902133,-74.927111,Chinatown Chinese Restaurant,8009,8,3,NJ
7393,150 Salem Church Rd,#NAME?,"Chinese, Restaurants",Newark,"{'Monday': '11:0-22:0', 'Tuesday': '16:0-22:0', 'Wednesday': '11:0-22:0', 'Thursday': '11:0-22:0', 'Friday': '11:0-22:30', 'Saturday': '11:0-22:30', 'Sunday': '15:30-21:0'}",1,39.6677815,-75.6952625,Ming Kitchen,19713,14,2.5,DE
7397,49 Mercator Dr,y5B42vKzpv2jbwRSfsH6pA,"Restaurants, Chinese",Greenwood,"{'Monday': '11:0-22:0', 'Tuesday': '11:0-22:0', 'Wednesday': '11:0-22:0', 'Thursday': '11:0-22:0', 'Friday': '11:0-23:0', 'Saturday': '11:0-23:0', 'Sunday': '11:0-22:0'}",0,39.60440611,-86.10596171,Lotus Garden Restaurant,46143,96,3.5,IN
7419,"188 West County Center, FC-7",uvFOvLWdTWndufGl5CtAZg,"Chinese, Restaurants, Fast Food",Des Peres,"{'Monday': '11:0-19:0', 'Tuesday': '11:0-19:0', 'Wednesday': '11:0-19:0', 'Thursday': '11:0-19:0', 'Friday': '11:0-19:0', 'Saturday': '11:0-19:0', 'Sunday': '12:0-18:0'}",1,38.60099965,-90.44616021,Panda Express,63131,10,3,MO
